시설명,시설유형,소재지도로명주소,소재지지번주소,위도,경도,영업상태명,전화번호,건립일자,건물면적,관리기관명,데이터기준일자,제공기관코드,제공기관명
금성경로당,경로당,전라북도 익산시 함열읍 금성길 5,전라북도 익산시 함열읍 와리 326-1,36.0861885,126.9657257288,영업,,2014-07-15,,전라북도 익산시청,2023-06-08,4680000,전라북도 익산시
신흥촌경로당,경로당,전라북도 익산시 함열읍 남당길 44-5,전라북도 익산시 함열읍 남당리 618-23,36.0791909,126.9711896242,영업,,2003-06-04,,전라북도 익산시청,2023-06-08,4680000,전라북도 익산시
하조경로당,경로당,전라북도 익산시 함열읍 남당길 48,전라북도 익산시 함열읍 남당리 618-31,36.0793737911,126.9719759,영업,,2004-02-10,,전라북도 익산시청,2023-06-08,4680000,전라북도 익산시
남당경로당,경로당,전라북도 익산시 함열읍 남당길 67,전라북도 익산시 함열읍 남당리 352,36.0785739,126.9740368535,영업,,1986-08-01,,전라북도 익산시청,2023-06-08,4680000,전라북도 익산시
함열방교경로당,경로당,전라북도 익산시 함열읍 다송방교길 11,전라북도 익산시 함열읍 다송리 296-4,36.0435448,126.9569966470,영업,,2008-08-29,,전라북도 익산시청,2023-06-08,4680000,전라북도 익산시
다송경로당,경로당,전라북도 익산시 함열읍 다송방교길 61,전라북도 익산시 함열읍 다송리 408-10,36.0418711229,126.9541070421,영업,,1981-06-01,,전라북도 익산시청,2023-06-08,4680000,전라북도 익산시
함열동신경로당,경로당,전라북도 익산시 함열읍 동신길 14,전라북도 익산시 함열읍 남당리 187-7,36.0753044,126.9790156061,영업,,1987-05-01,,전라북도 익산시청,2023-06-08,4680000,전라북도 익산시
동지상경로당,경로당,전라북도 익산시 함열읍 동지상1길 13,전라북도 익산시 함열읍 와리 473-1,36.0869306,126.9584299665,영업,,2004-06-22,,전라북도 익산시청,2023-06-08,4680000,전라북도 익산시
두라마을경로당,경로당,전라북도 익산시 함열읍 두라길 42,전라북도 익산시 함열읍 석매리 491-14,36.0653781,126.9616381277,영업,,2002-03-15,,전라북도 익산시청,2023-06-08,4680000,전라북도 익산시
매교경로당,경로당,전라북도 익산시 함열읍 매교길 19,전라북도 익산시 함열읍 석매리 215-4,36.0502171,126.9631733538,영업,,1997-01-20,,전라북도 익산시청,2023-06-08,4680000,전라북도 익산시
미력경로당,경로당,전라북도 익산시 함열읍 미력길 9,전라북도 익산시 함열읍 와리 660-16,36.0745083,126.9595330841,영업,,1973-08-01,,전라북도 익산시청,2023-06-08,4680000,전라북도 익산시
박전경로당,경로당,전라북도 익산시 함열읍 박전1길 16-6,전라북도 익산시 함열읍 다송리 276,36.0416922,126.9602694191,영업,,2008-06-30,,전라북도 익산시청,2023-06-08,4680000,전라북도 익산시
삼양경로당,경로당,전라북도 익산시 함열읍 삼양길 3,전라북도 익산시 함열읍 와리 372-5,36.0913877,126.9592617719,영업,,2004-12-15,,전라북도 익산시청,2023-06-08,4680000,전라북도 익산시
상마경로당,경로당,전라북도 익산시 함열읍 상마1길 20-1,전라북도 익산시 함열읍 다송리 140-3,36.0339653,126.9655787268,영업,,2009-04-06,,전라북도 익산시청,2023-06-08,4680000,전라북도 익산시
상조경로당,경로당,전라북도 익산시 함열읍 상조길 33,전라북도 익산시 함열읍 남당리 661-3,36.0771632,126.9698386296,영업,,2004-03-09,,전라북도 익산시청,2023-06-08,4680000,전라북도 익산시
상지원경로당,경로당,전라북도 익산시 함열읍 상지원길 67,전라북도 익산시 함열읍 석매리 116-15,36.0452483027,126.9761455042,영업,,1994-01-13,,전라북도 익산시청,2023-06-08,4680000,전라북도 익산시
석치경로당,경로당,전라북도 익산시 함열읍 석매석치길 86,전라북도 익산시 함열읍 석매리 873-1,36.0576949516,126.9560551698,영업,,1974-08-01,,전라북도 익산시청,2023-06-08,4680000,전라북도 익산시
현대화시장경로당,경로당,전라북도 익산시 함열읍 와리2길 8,전라북도 익산시 함열읍 와리 544-34,36.0808054,126.9585224388,영업,,2007-02-21,,전라북도 익산시청,2023-06-08,4680000,전라북도 익산시
와리경로당,경로당,전라북도 익산시 함열읍 와리3길 38,전라북도 익산시 함열읍 와리 568-1,36.0813531,126.9610033170,영업,,1977-08-01,,전라북도 익산시청,2023-06-08,4680000,전라북도 익산시
장구2경로당,경로당,전라북도 익산시 함열읍 와리4길 13-4,전라북도 익산시 함열읍 와리 314-8,36.0827233828,126.9627626,영업,,2004-03-09,,전라북도 익산시청,2023-06-08,4680000,전라북도 익산시
동지경로당,경로당,전라북도 익산시 함열읍 와리들길 145,전라북도 익산시 함열읍 와리 1266,36.0860802,126.9543868203,영업,,1991-05-01,,전라북도 익산시청,2023-06-08,4680000,전라북도 익산시
와야경로당,경로당,전라북도 익산시 함열읍 와야길 25-2,전라북도 익산시 함열읍 다송리 621,36.0426543,126.9506855018,영업,,1978-05-01,,전라북도 익산시청,2023-06-08,4680000,전라북도 익산시
용왕경로당,경로당,전라북도 익산시 함열읍 용왕길 18,전라북도 익산시 함열읍 석매리 369-31,36.0623371135,126.9665160355,영업,,1961-05-01,,전라북도 익산시청,2023-06-08,4680000,전라북도 익산시
대지경로당,경로당,전라북도 익산시 함열읍 용지1길 109,전라북도 익산시 함열읍 용지리 240,36.0500789041,126.9503586037,영업,,2004-12-27,,전라북도 익산시청,2023-06-08,4680000,전라북도 익산시
소지경로당,경로당,전라북도 익산시 함열읍 용지1길 33-13,전라북도 익산시 함열읍 용지리 55-1,36.0473553,126.9516571877,영업,,2003-02-20,,전라북도 익산시청,2023-06-08,4680000,전라북도 익산시
함열장등경로당,경로당,전라북도 익산시 함열읍 장등길 38,전라북도 익산시 함열읍 흘산리 80-1,36.0679328117,126.9826667311,영업,,2000-10-16,,전라북도 익산시청,2023-06-08,4680000,전라북도 익산시
정동경로당,경로당,전라북도 익산시 함열읍 정동길 31,전라북도 익산시 함열읍 와리 1217-5,36.0710891703,126.9637390971,영업,,2003-02-20,,전라북도 익산시청,2023-06-08,4680000,전라북도 익산시
정자경로당,경로당,전라북도 익산시 함열읍 정자길 122,전라북도 익산시 함열읍 남당리 557-1,36.0850938654,126.9757900604,영업,,1981-06-01,,전라북도 익산시청,2023-06-08,4680000,전라북도 익산시
학선여자경로당,경로당,전라북도 익산시 함열읍 학선길 40,전라북도 익산시 함열읍 흘산리 362-3,36.0543494,126.9764880285,영업,,1994-06-18,,전라북도 익산시청,2023-06-08,4680000,전라북도 익산시
학선경로당,경로당,전라북도 익산시 함열읍 학선길 6,전라북도 익산시 함열읍 흘산리 286-12,36.0541817,126.9738894772,영업,,1997-12-01,,전라북도 익산시청,2023-06-08,4680000,전라북도 익산시
함열경로당,경로당,전라북도 익산시 함열읍 함열1길 79,전라북도 익산시 함열읍 와리 545-102,36.0828674812,126.9573473826,영업,,1972-07-01,,전라북도 익산시청,2023-06-08,4680000,전라북도 익산시
장구1경로당,경로당,전라북도 익산시 함열읍 함열3길 58,전라북도 익산시 함열읍 와리 521-2,36.0839935313,126.9612520465,영업,,2005-02-25,,전라북도 익산시청,2023-06-08,4680000,전라북도 익산시
탄동경로당,경로당,전라남도 신안군 지도읍 탄동길 58-8,전라남도 신안군 지도읍 탄동리 341-1,35.04632053,126.1712693,영업,,2001-02-14,71,전라남도 신안군청,2023-06-05,5010000,전라남도 신안군
함열제일@경로당,경로당,전라북도 익산시 함열읍 함열5길 19-21,전라북도 익산시 함열읍 와리 163,36.0746531582,126.9623182567,영업,,2003-12-11,,전라북도 익산시청,2023-06-08,4680000,전라북도 익산시
함열휴먼시아1단지경로당,경로당,전라북도 익산시 함열읍 함열5길 28,전라북도 익산시 함열읍 와리 1539,36.0759791661,126.9633171009,영업,,2011-04-08,,전라북도 익산시청,2023-06-08,4680000,전라북도 익산시
상시마을 경로당,경로당,전라북도 익산시 함열읍 함열7길 33,전라북도 익산시 함열읍 와리 233-3,36.0807971769,126.9647801413,영업,,2002-03-15,,전라북도 익산시청,2023-06-08,4680000,전라북도 익산시
멀메경로당,경로당,전라북도 익산시 함열읍 흘산로 511-4,전라북도 익산시 함열읍 흘산리 169-2,36.0618001027,126.9828769708,영업,,1999-06-15,,전라북도 익산시청,2023-06-08,4680000,전라북도 익산시
함열신호e플러스@경로당,경로당,전라북도 익산시 함열읍 함열중앙로 38(함열 신호 e플러스 아파트),전라북도 익산시 함열읍 와리 615-9,36.0783024189,126.9615670248,영업,,2023-02-20,,전라북도 익산시청,2023-06-08,4680000,전라북도 익산시
가장경로당,경로당,전라북도 익산시 오산면 가장길 10-5,전라북도 익산시 오산면 장신리 613-1,35.9496603,126.9215918964,영업,,2006-10-10,,전라북도 익산시청,2023-06-08,4680000,전라북도 익산시
광양경로당,경로당,전라북도 익산시 오산면 광양2길 14,전라북도 익산시 오산면 송학리 762,35.9433043,126.9209999613,영업,,1997-12-16,,전라북도 익산시청,2023-06-08,4680000,전라북도 익산시
오산학동경로당,경로당,전라북도 익산시 오산면 군익로2길 16-15,전라북도 익산시 오산면 송학리 617-1,35.9442354561,126.9284219719,영업,,1999-12-30,,전라북도 익산시청,2023-06-08,4680000,전라북도 익산시
금몽경로당,경로당,전라북도 익산시 오산면 금몽길 20-6,전라북도 익산시 오산면 남전리 367-1,35.9324592402,126.8911873561,영업,,2006-02-28,,전라북도 익산시청,2023-06-08,4680000,전라북도 익산시
월포경로당,경로당,전라북도 익산시 오산면 남오산1길 229,전라북도 익산시 오산면 신지리 689-10,35.9146574266,126.8692566929,영업,,2013-12-26,,전라북도 익산시청,2023-06-08,4680000,전라북도 익산시
영성경로당,경로당,전라북도 익산시 오산면 남전1길 128,전라북도 익산시 오산면 신지리 373-3,35.9200758712,126.8890245,영업,,1995-10-01,,전라북도 익산시청,2023-06-08,4680000,전라북도 익산시
북참경로당,경로당,전라북도 익산시 오산면 남전1길 68,전라북도 익산시 오산면 남전리 75-13,35.9245920914,126.8909782996,영업,,1996-01-01,,전라북도 익산시청,2023-06-08,4680000,전라북도 익산시
남참경로당,경로당,전라북도 익산시 오산면 남참길 20-1,전라북도 익산시 오산면 남전리 557-1,35.9171782,126.8907094434,영업,,2010-03-16,,전라북도 익산시청,2023-06-08,4680000,전라북도 익산시
농흥경로당,경로당,전라북도 익산시 오산면 농흥1길 17-5,전라북도 익산시 오산면 오산리 777-1,35.9423838334,126.8992622585,영업,,1999-12-30,,전라북도 익산시청,2023-06-08,4680000,전라북도 익산시
영만경로당,경로당,전라북도 익산시 오산면 만석길 163,전라북도 익산시 오산면 영만리 9-3,35.9719699,126.9152581413,영업,,1983-01-01,,전라북도 익산시청,2023-06-08,4680000,전라북도 익산시
만신경로당,경로당,전라북도 익산시 오산면 만신길 17-1,전라북도 익산시 오산면 영만리 24-9,35.9667015252,126.9136897669,영업,,2016-01-06,,전라북도 익산시청,2023-06-08,4680000,전라북도 익산시
문화마을경로당,경로당,전라북도 익산시 오산면 문화마을1길 4,전라북도 익산시 오산면 신지리 854,35.9210374022,126.8767250124,영업,,1978-01-01,,전라북도 익산시청,2023-06-08,4680000,전라북도 익산시
회복경로당,경로당,전라북도 익산시 오산면 번영로1길 83,전라북도 익산시 오산면 목천리 928-13,35.9135017749,126.9156661137,영업,,2009-10-19,,전라북도 익산시청,2023-06-08,4680000,전라북도 익산시
북신석경로당,경로당,전라북도 익산시 오산면 북신석길 2,전라북도 익산시 오산면 신지리 70-27,35.9328601,126.8804814704,영업,,2010-10-14,,전라북도 익산시청,2023-06-08,4680000,전라북도 익산시
장신휴먼시아1단지경로당,경로당,전라북도 익산시 오산면 선화로4길 66,전라북도 익산시 오산면 장신리 1130,35.9455326441,126.9312495979,영업,,2011-06-23,,전라북도 익산시청,2023-06-08,4680000,전라북도 익산시
장신휴먼시아2단지경로당,경로당,전라북도 익산시 오산면 선화로4길 24-9,전라북도 익산시 오산면 장신리 1127,35.9489843432,126.9325808759,영업,,2011-03-23,,전라북도 익산시청,2023-06-08,4680000,전라북도 익산시
장신휴먼시아3단지경로당,경로당,전라북도 익산시 오산면 선화로4길 14,전라북도 익산시 오산면 장신리 1126,35.9511356475,126.9329774108,영업,,2011-01-04,,전라북도 익산시청,2023-06-08,4680000,전라북도 익산시
신교경로당,경로당,전라북도 익산시 오산면 신교1길 19-11,전라북도 익산시 오산면 목천리 655-30,35.9126544,126.9220048933,영업,,2014-06-11,,전라북도 익산시청,2023-06-08,4680000,전라북도 익산시
신석경로당,경로당,전라북도 익산시 오산면 신석길 14-2,전라북도 익산시 오산면 신지리 186-1,35.9315904,126.8804960584,영업,,1997-03-25,,전라북도 익산시청,2023-06-08,4680000,전라북도 익산시
신오산경로당,경로당,전라북도 익산시 오산면 신오산길 46-5,전라북도 익산시 오산면 오산리 210-23,35.9289619,126.9097141393,영업,,2005-09-15,,전라북도 익산시청,2023-06-08,4680000,전라북도 익산시
신중경로당,경로당,전라북도 익산시 오산면 신중길 71,전라북도 익산시 오산면 오산리 490,35.9444447119,126.9087390750,영업,,2008-08-21,,전라북도 익산시청,2023-06-08,4680000,전라북도 익산시
야전마을경로당,경로당,전라북도 익산시 오산면 야전길 9,전라북도 익산시 오산면 남전리 21-1,35.9280724,126.8989558997,영업,,2015-01-12,,전라북도 익산시청,2023-06-08,4680000,전라북도 익산시
상아경로당,경로당,전라북도 익산시 오산면 오산3길 13-2,전라북도 익산시 오산면 장신리 717,35.9438755,126.9137387604,영업,,2010-12-22,,전라북도 익산시청,2023-06-08,4680000,전라북도 익산시
모산경로당,경로당,전라북도 익산시 오산면 오산들길 82,전라북도 익산시 오산면 오산리 620-14,35.9500479,126.8881274285,영업,,2005-12-26,,전라북도 익산시청,2023-06-08,4680000,전라북도 익산시
옥포경로당,경로당,전라북도 익산시 오산면 옥포2길 40-2,전라북도 익산시 오산면 신지리 549,35.9201301202,126.8629272328,영업,,1996-01-01,,전라북도 익산시청,2023-06-08,4680000,전라북도 익산시
외검경로당,경로당,전라북도 익산시 오산면 외검길 35,전라북도 익산시 오산면 장신리 885-114,35.9539063,126.9193773685,영업,,1996-10-17,,전라북도 익산시청,2023-06-08,4680000,전라북도 익산시
용곤경로당,경로당,전라북도 익산시 오산면 용곤길 54-1,전라북도 익산시 오산면 장신리 264-40,35.958125,126.9247379360,영업,,1997-03-25,,전라북도 익산시청,2023-06-08,4680000,전라북도 익산시
고사경로당,경로당,전라남도 신안군 지도읍 두류산길 121,전라남도 신안군 지도읍 감정리 607-8,35.06899577,126.1878013,영업,,2001-02-14,87,전라남도 신안군청,2023-06-05,5010000,전라남도 신안군
원오산경로당,경로당,전라북도 익산시 오산면 원오산길 22,전라북도 익산시 오산면 오산리 172-9,35.9355898398,126.9146404085,영업,,2005-08-31,,전라북도 익산시청,2023-06-08,4680000,전라북도 익산시
신동리부녀경로당,경로당,전라북도 익산시 오산면 전동길 11-1,전라북도 익산시 오산면 남전리 163-1,35.9169579,126.9038551079,영업,,1961-01-01,,전라북도 익산시청,2023-06-08,4680000,전라북도 익산시
청수경로당,경로당,전라북도 익산시 오산면 청수1길 18,전라북도 익산시 오산면 영만리 951-70,35.9584342,126.9048174099,영업,,2000-12-01,,전라북도 익산시청,2023-06-08,4680000,전라북도 익산시
서오산경로당,경로당,전라북도 익산시 오산면 평동로 248-5,전라북도 익산시 오산면 오산리 308-10,35.9382335,126.9082614816,영업,,1998-01-14,,전라북도 익산시청,2023-06-08,4680000,전라북도 익산시
오산중앙경로당,경로당,전라북도 익산시 오산면 평동로 295-23,전라북도 익산시 오산면 오산리 430-22,35.938927,126.9121290557,영업,,1961-01-01,,전라북도 익산시청,2023-06-08,4680000,전라북도 익산시
오산경로당,경로당,전라북도 익산시 오산면 항쟁로 173-11,전라북도 익산시 오산면 영만리 43-1,35.9579490206,126.9086559237,영업,,1997-09-01,,전라북도 익산시청,2023-06-08,4680000,전라북도 익산시
신동리경로당,경로당,전라북도 익산시 오산면 후동길 2,전라북도 익산시 오산면 남전리 42-58,35.9191092,126.9029194833,영업,,1992-01-01,,전라북도 익산시청,2023-06-08,4680000,전라북도 익산시
시동1구경로당,경로당,전라북도 익산시 황등면 황등10길 8,전라북도 익산시 황등면 황등리 581-2,36.0063665,126.9469647663,영업,,2016-10-27,,전라북도 익산시청,2023-06-08,4680000,전라북도 익산시
시동경로당,경로당,전라북도 익산시 황등면 황금로 23-3,전라북도 익산시 황등면 황등리 645-7,36.0084087,126.9458717893,영업,,2002-01-14,,전라북도 익산시청,2023-06-08,4680000,전라북도 익산시
황룡경로당,경로당,전라북도 익산시 황등면 황등9길 8-5,전라북도 익산시 황등면 황등리 804,36.0071037533,126.9435684561,영업,,1982-06-08,,전라북도 익산시청,2023-06-08,4680000,전라북도 익산시
황등시서2경로당,경로당,전라북도 익산시 황등면 황등8길 6,전라북도 익산시 황등면 황등리 921-20,36.0047291,126.9439171910,영업,,2002-07-08,,전라북도 익산시청,2023-06-08,4680000,전라북도 익산시
황등청송경로당,경로당,전라북도 익산시 황등면 황등6길 52,전라북도 익산시 황등면 황등리 464-94,36.0051559984,126.9452963718,영업,,1991-04-01,,전라북도 익산시청,2023-06-08,4680000,전라북도 익산시
시북 경로당,경로당,전라북도 익산시 황등면 황등11길 13,전라북도 익산시 황등면 황등리 850-4,36.0085413,126.9439085073,영업,,2004-01-19,,전라북도 익산시청,2023-06-08,4680000,전라북도 익산시
차상경로당,경로당,전라북도 익산시 황등면 차상길 9,전라북도 익산시 황등면 황등리 369,36.0011420673,126.9497872679,영업,,1998-04-01,,전라북도 익산시청,2023-06-08,4680000,전라북도 익산시
차하경로당,경로당,전라북도 익산시 황등면 차하길 27,전라북도 익산시 황등면 황등리 430-1,36.0036513,126.9492107273,영업,,2002-12-02,,전라북도 익산시청,2023-06-08,4680000,전라북도 익산시
거성@경로당,경로당,전라북도 익산시 황등면 황등3길 10-12,전라북도 익산시 황등면 황등리 999-71,35.9989878,126.9441027315,영업,,2008-10-21,,전라북도 익산시청,2023-06-08,4680000,전라북도 익산시
대영@경로당,경로당,전라북도 익산시 황등면 황등3길 6,전라북도 익산시 황등면 황등리 1038,35.9987442522,126.9446814920,영업,,2004-12-22,,전라북도 익산시청,2023-06-08,4680000,전라북도 익산시
황등경로당,경로당,전라북도 익산시 황등면 황등4길 4-4,전라북도 익산시 황등면 황등리 229-2,35.9987989,126.9462728860,영업,,1965-04-01,,전라북도 익산시청,2023-06-08,4680000,전라북도 익산시
보삼3구경로당,경로당,전라북도 익산시 황등면 황등로 58-9,전라북도 익산시 황등면 황등리 231-7,35.9986578367,126.9469036950,영업,,1997-12-19,,전라북도 익산시청,2023-06-08,4680000,전라북도 익산시
보삼경로당,경로당,전라북도 익산시 황등면 황등5길 18-5,전라북도 익산시 황등면 황등리 355-4,36.0004365847,126.9464599718,영업,,1994-05-09,,전라북도 익산시청,2023-06-08,4680000,전라북도 익산시
황등우남@경로당,경로당,전라북도 익산시 황등면 황등로 44,전라북도 익산시 황등면 황등리 257-4,35.9970968029,126.9485435891,영업,,2009-07-14,,전라북도 익산시청,2023-06-08,4680000,전라북도 익산시
진성@경로당,경로당,전라북도 익산시 황등면 황등3길 37,전라북도 익산시 황등면 황등리 122-1,35.9963192647,126.9446010053,영업,,2007-02-16,,전라북도 익산시청,2023-06-08,4680000,전라북도 익산시
해담아파트경로당,경로당,전라북도 익산시 황등면 황등3길 15,전라북도 익산시 황등면 황등리 1043-2,35.9976975,126.9450483478,영업,,2001-06-29,,전라북도 익산시청,2023-06-08,4680000,전라북도 익산시
신기마을경로당,경로당,전라북도 익산시 황등면 황등1길 25,전라북도 익산시 황등면 황등리 208-8,35.99512,126.9461165617,영업,,1998-10-12,,전라북도 익산시청,2023-06-08,4680000,전라북도 익산시
백길경로당,경로당,전라북도 익산시 황등면 백길 17,전라북도 익산시 황등면 황등리 1084-4,35.9963392573,126.9420888991,영업,,2005-12-23,,전라북도 익산시청,2023-06-08,4680000,전라북도 익산시
황방경로당,경로당,전라북도 익산시 황등면 황방2길 17-1,전라북도 익산시 황등면 황등리 973-8,36.0031661557,126.9418264767,영업,,2007-01-17,,전라북도 익산시청,2023-06-08,4680000,전라북도 익산시
황등방교경로당,경로당,전라북도 익산시 황등면 방교길 21,전라북도 익산시 황등면 황등리 1224,36.0006998877,126.9365847793,영업,,1995-06-01,,전라북도 익산시청,2023-06-08,4680000,전라북도 익산시
상동마을경로당,경로당,전라북도 익산시 황등면 동연4길 73-12,전라북도 익산시 황등면 동연리 46-34,36.0062093,126.9399530497,영업,,2016-10-24,,전라북도 익산시청,2023-06-08,4680000,전라북도 익산시
동련경로당,경로당,전라북도 익산시 황등면 동연1길 63-11,전라북도 익산시 황등면 동연리 326-5,36.0085950883,126.9334963946,영업,,1989-02-05,,전라북도 익산시청,2023-06-08,4680000,전라북도 익산시
부평신야경로당,경로당,전라북도 익산시 황등면 신야길 6,전라북도 익산시 황등면 신기리 484-32,36.0007083,126.9213489991,영업,,2002-12-02,,전라북도 익산시청,2023-06-08,4680000,전라북도 익산시
죽촌경로당,경로당,전라북도 익산시 황등면 죽촌2길 44,전라북도 익산시 황등면 죽촌리 311-1,36.0212073,126.9380391144,영업,,1982-06-08,,전라북도 익산시청,2023-06-08,4680000,전라북도 익산시
화부경로당,경로당,전라북도 익산시 황등면 화농길 6,전라북도 익산시 황등면 죽촌리 503-8,36.0193646,126.9296376666,영업,,1982-06-08,,전라북도 익산시청,2023-06-08,4680000,전라북도 익산시
여성경로당,경로당,전라남도 신안군 지도읍 읍내길 109,전라남도 신안군 지도읍 읍내리 216-1,35.060802,126.2093108,영업,,2000-07-05,87,전라남도 신안군청,2023-06-05,5010000,전라남도 신안군
도촌경로당,경로당,전라북도 익산시 황등면 도촌길 44,전라북도 익산시 황등면 죽촌리 175-20,36.0282981,126.9383051611,영업,,1989-03-03,,전라북도 익산시청,2023-06-08,4680000,전라북도 익산시
황농경로당,경로당,전라북도 익산시 황등면 정착2길 9-8,전라북도 익산시 황등면 죽촌리 3-41,36.031021,126.9472096336,영업,,1982-06-08,,전라북도 익산시청,2023-06-08,4680000,전라북도 익산시
황등신화경로당,경로당,전라북도 익산시 황등면 신성신화길 2,전라북도 익산시 황등면 신성리 346-1,36.0281063718,126.9281773153,영업,,1995-10-20,,전라북도 익산시청,2023-06-08,4680000,전라북도 익산시
황등신성경로당,경로당,전라북도 익산시 황등면 시와로 323,전라북도 익산시 황등면 신성리 212-1,36.0321784,126.9240996189,영업,,1976-01-03,,전라북도 익산시청,2023-06-08,4680000,전라북도 익산시
대성경로당,경로당,전라북도 익산시 황등면 대성길 3,전라북도 익산시 황등면 신성리 594-2,36.0281727,126.9252928076,영업,,2016-09-12,,전라북도 익산시청,2023-06-08,4680000,전라북도 익산시
구자경로당,경로당,전라북도 익산시 황등면 구자길 87,전라북도 익산시 황등면 구자리 83-5,36.0420519434,126.9257528674,영업,,1995-10-20,,전라북도 익산시청,2023-06-08,4680000,전라북도 익산시
봉곡경로당,경로당,전라북도 익산시 황등면 봉곡길 19,전라북도 익산시 황등면 구자리 산51-1,36.0513287868,126.9212003587,영업,,1986-03-02,,전라북도 익산시청,2023-06-08,4680000,전라북도 익산시
황교2마을경로당,경로당,전라북도 익산시 황등면 용산로 224,전라북도 익산시 황등면 용산리 438-32,36.042152,126.9365666686,영업,,2016-10-16,,전라북도 익산시청,2023-06-08,4680000,전라북도 익산시
황등용산경로당,경로당,전라북도 익산시 황등면 황성로 286,전라북도 익산시 황등면 용산리 570-13,36.050236,126.9354052966,영업,,1982-06-08,,전라북도 익산시청,2023-06-08,4680000,전라북도 익산시
소산경로당,경로당,전라북도 익산시 황등면 소산길 59,전라북도 익산시 황등면 용산리 787,36.0542563,126.9397977103,영업,,2006-01-02,,전라북도 익산시청,2023-06-08,4680000,전라북도 익산시
대동경로당,경로당,전라북도 익산시 황등면 대동1길 20,전라북도 익산시 황등면 용산리 721,36.0536124,126.9361182389,영업,,2008-03-25,,전라북도 익산시청,2023-06-08,4680000,전라북도 익산시
율동경로당,경로당,전라북도 익산시 황등면 율동2길 12-10,전라북도 익산시 황등면 율촌리 371-1,36.0122409868,126.9525896659,영업,,1982-06-08,,전라북도 익산시청,2023-06-08,4680000,전라북도 익산시
신평경로당,경로당,전라북도 익산시 황등면 율촌길 43,전라북도 익산시 황등면 율촌리 148-6,36.0173434,126.9595238655,영업,,1994-05-09,,전라북도 익산시청,2023-06-08,4680000,전라북도 익산시
황등신기촌경로당,경로당,전라북도 익산시 황등면 신기촌길 85,전라북도 익산시 황등면 율촌리 14-54,36.013409,126.9629560787,영업,,2005-01-14,,전라북도 익산시청,2023-06-08,4680000,전라북도 익산시
정착2경로당,경로당,전라북도 익산시 황등면 후정1길 77,전라북도 익산시 황등면 율촌리 515-287,36.0258833,126.9533124280,영업,,2012-05-02,,전라북도 익산시청,2023-06-08,4680000,전라북도 익산시
원신기경로당,경로당,전라북도 익산시 황등면 원신기길 72,전라북도 익산시 황등면 신기리 280-21,35.9952024,126.9337903218,영업,,2009-10-12,,전라북도 익산시청,2023-06-08,4680000,전라북도 익산시
송하경로당,경로당,전라북도 익산시 황등면 송하동길 25,전라북도 익산시 황등면 신기리 354-1,35.9987505711,126.9335176369,영업,,2015-11-06,,전라북도 익산시청,2023-06-08,4680000,전라북도 익산시
삼거경로당,경로당,전라북도 익산시 황등면 탑천로 192,전라북도 익산시 황등면 신기리 333,35.9986465,126.9313197139,영업,,1994-07-01,,전라북도 익산시청,2023-06-08,4680000,전라북도 익산시
불로마을경로당,경로당,전라북도 익산시 황등면 불로길 9,전라북도 익산시 황등면 신기리 386-39,35.9996807,126.9267082876,영업,,2006-01-26,,전라북도 익산시청,2023-06-08,4680000,전라북도 익산시
장고경로당,경로당,전라북도 익산시 황등면 장고길 35-7,전라북도 익산시 황등면 신기리 584-38,35.9899888,126.9244148393,영업,,2009-03-24,,전라북도 익산시청,2023-06-08,4680000,전라북도 익산시
무동경로당,경로당,전라북도 익산시 황등면 무동길 13-1,전라북도 익산시 황등면 구자리 398,36.0359473646,126.9227209637,영업,,2002-05-03,,전라북도 익산시청,2023-06-08,4680000,전라북도 익산시
간성경로당,경로당,전라북도 익산시 함라면 간성길 26,전라북도 익산시 함라면 금성리 296-62,36.0662375944,126.9217937858,영업,,1997-01-12,,전라북도 익산시청,2023-06-08,4680000,전라북도 익산시
고월경로당,경로당,전라북도 익산시 함라면 고월길 17-2,전라북도 익산시 함라면 다망리 567-4,36.0176807,126.9125575827,영업,,1988-10-01,,전라북도 익산시청,2023-06-08,4680000,전라북도 익산시
함라금곡경로당,경로당,전라북도 익산시 함라면 금곡길 26-4,전라북도 익산시 함라면 금성리 522-1,36.0678643,126.9151714275,영업,,2004-01-05,,전라북도 익산시청,2023-06-08,4680000,전라북도 익산시
함라연화경로당,경로당,전라북도 익산시 함라면 다망연화길 27,전라북도 익산시 함라면 다망리 728-2,36.0102008195,126.9174098963,영업,,2002-11-08,,전라북도 익산시청,2023-06-08,4680000,전라북도 익산시
망월경로당,경로당,전라북도 익산시 함라면 망월길 22-21,전라북도 익산시 함라면 다망리 965-5,36.028029,126.9095858293,영업,,2009-12-30,,전라북도 익산시청,2023-06-08,4680000,전라북도 익산시
소룡경로당,경로당,전라북도 익산시 함라면 소룡길 14,전라북도 익산시 함라면 신목리 1261-1,36.0350670827,126.8770074827,영업,,2003-03-20,,전라북도 익산시청,2023-06-08,4680000,전라북도 익산시
함라노소경로당,경로당,전라북도 익산시 함라면 수동1길 6,전라북도 익산시 함라면 함열리 495-1,36.0615474929,126.9099212248,영업,,1989-05-28,,전라북도 익산시청,2023-06-08,4680000,전라북도 익산시
다은경로당,경로당,전라북도 익산시 함라면 시와로 472,전라북도 익산시 함라면 다망리 200-4,36.0349517,126.9118839754,영업,,1997-01-19,,전라북도 익산시청,2023-06-08,4680000,전라북도 익산시
진등경로당,경로당,전라북도 익산시 함라면 신대진등길 118,전라북도 익산시 함라면 신대리 678-35,36.048085,126.9143429293,영업,,2008-12-23,,전라북도 익산시청,2023-06-08,4680000,전라북도 익산시
신등경로당,경로당,전라북도 익산시 함라면 신등길 112,전라북도 익산시 함라면 신등리 548-8,36.0293724885,126.8956383754,영업,,1986-07-28,,전라북도 익산시청,2023-06-08,4680000,전라북도 익산시
신촌중앙경로당,경로당,전라북도 익산시 함라면 신등신촌1길 15-5,전라북도 익산시 함라면 신등리 4-1,36.0244894,126.9086896536,영업,,1970-02-15,,전라북도 익산시청,2023-06-08,4680000,전라북도 익산시
적동경로당,경로당,전라남도 신안군 지도읍 적동길 18-1,전라남도 신안군 지도읍 내양리 1456-4,35.09969911,126.213921,영업,,2015-03-02,68,전라남도 신안군청,2023-06-05,5010000,전라남도 신안군
함라오산경로당,경로당,전라북도 익산시 함라면 신목오산길 15-1,전라북도 익산시 함라면 신목리 816-1,36.0129537,126.8993689011,영업,,2009-08-12,,전라북도 익산시청,2023-06-08,4680000,전라북도 익산시
신함경로당,경로당,전라북도 익산시 함라면 신함길 4,전라북도 익산시 함라면 신목리 573,36.0143402,126.8953733573,영업,,2001-11-06,,전라북도 익산시청,2023-06-08,4680000,전라북도 익산시
안정경로당,경로당,전라북도 익산시 함라면 안정교동길 2-10,전라북도 익산시 함라면 함열리 606,36.0623067,126.9117352171,영업,,2006-03-02,,전라북도 익산시청,2023-06-08,4680000,전라북도 익산시
양산경로당,경로당,전라북도 익산시 함라면 양산1길 10,전라북도 익산시 함라면 신목리 5,36.0082323371,126.9121919017,영업,,2002-09-06,,전라북도 익산시청,2023-06-08,4680000,전라북도 익산시
어등경로당,경로당,전라북도 익산시 함라면 어등1길 52,전라북도 익산시 함라면 신대리 502-11,36.0428243,126.8982908781,영업,,1980-05-01,,전라북도 익산시청,2023-06-08,4680000,전라북도 익산시
와우경로당,경로당,전라북도 익산시 함라면 와우길 4,전라북도 익산시 함라면 신대리 408-3,36.0496102,126.9000325236,영업,,2006-03-02,,전라북도 익산시청,2023-06-08,4680000,전라북도 익산시
입남경로당,경로당,전라북도 익산시 함라면 입남길 56-10,전라북도 익산시 함라면 신등리 888,36.0429517839,126.8903363110,영업,,2002-06-25,,전라북도 익산시청,2023-06-08,4680000,전라북도 익산시
장고재경로당,경로당,전라북도 익산시 함라면 장고재길 7-8,전라북도 익산시 함라면 신등리 666-6,36.0293774723,126.8935163295,영업,,2005-12-20,,전라북도 익산시청,2023-06-08,4680000,전라북도 익산시
장점경로당,경로당,전라북도 익산시 함라면 장점길 21,전라북도 익산시 함라면 신등리 738,36.0333306532,126.8902530066,영업,,1977-09-04,,전라북도 익산시청,2023-06-08,4680000,전라북도 익산시
진목경로당,경로당,전라북도 익산시 함라면 진목1길 13-7,전라북도 익산시 함라면 신목리 333-21,36.0202361,126.9022392537,영업,,1980-05-28,,전라북도 익산시청,2023-06-08,4680000,전라북도 익산시
진산경로당,경로당,전라북도 익산시 함라면 진산길 8-8,전라북도 익산시 함라면 신등리 1143-1,36.0321080138,126.9033019335,영업,,2008-02-19,,전라북도 익산시청,2023-06-08,4680000,전라북도 익산시
삼리노인회경로당,경로당,전라북도 익산시 함라면 천남길 13-4,전라북도 익산시 함라면 함열리 329-3,36.0595831,126.9088349791,영업,,1988-02-13,,전라북도 익산시청,2023-06-08,4680000,전라북도 익산시
수동경로당,경로당,전라북도 익산시 함라면 천남길 20-4,전라북도 익산시 함라면 함열리 377,36.0601891,126.9082839513,영업,,2006-12-26,,전라북도 익산시청,2023-06-08,4680000,전라북도 익산시
함라여성경로당,경로당,전라북도 익산시 함라면 천남길 8,전라북도 익산시 함라면 함열리 297-1,36.0595742927,126.9096024823,영업,,1994-12-12,,전라북도 익산시청,2023-06-08,4680000,전라북도 익산시
함라장등경로당,경로당,전라북도 익산시 함라면 함라장등길 23,전라북도 익산시 함라면 신등리 388-2,36.0317562,126.9015573358,영업,,2011-12-28,,전라북도 익산시청,2023-06-08,4680000,전라북도 익산시
행동경로당,경로당,전라북도 익산시 함라면 행동길 20,전라북도 익산시 함라면 함열리 264-10,36.0577688373,126.9099189829,영업,,2011-12-21,,전라북도 익산시청,2023-06-08,4680000,전라북도 익산시
회룡경로당,경로당,전라북도 익산시 함라면 회룡길 77,전라북도 익산시 함라면 다망리 423-5,36.0246666,126.9123766869,영업,,2002-09-06,,전라북도 익산시청,2023-06-08,4680000,전라북도 익산시
웅북경로당,경로당,전라북도 익산시 웅포면 강변로 727-11,전라북도 익산시 웅포면 대붕암리 814,36.1253103,126.8946502983,영업,,1976-03-15,,전라북도 익산시청,2023-06-08,4680000,전라북도 익산시
곰개강변경로당,경로당,전라북도 익산시 웅포면 곰개길 10-9,전라북도 익산시 웅포면 웅포리 783,36.0645261692,126.8760478967,영업,,2004-12-29,,전라북도 익산시청,2023-06-08,4680000,전라북도 익산시
웅포상제부녀경로당,경로당,전라북도 익산시 웅포면 나루세길 8,전라북도 익산시 웅포면 대붕암리 426-3,36.1263068468,126.8958972404,영업,,1996-03-18,,전라북도 익산시청,2023-06-08,4680000,전라북도 익산시
구룡목경로당,경로당,전라북도 익산시 웅포면 녹차마을길 13-5,전라북도 익산시 웅포면 입점리 445-14,36.0595913,126.8802548375,영업,,2002-04-30,,전라북도 익산시청,2023-06-08,4680000,전라북도 익산시
구룡목여성경로당,경로당,전라북도 익산시 웅포면 녹차마을길 81 (구룡목여성경로당),전라북도 익산시 웅포면 입점리 29-1,36.0565682447,126.8861057368,영업,,2016-05-03,,전라북도 익산시청,2023-06-08,4680000,전라북도 익산시
대마경로당,경로당,전라북도 익산시 웅포면 대마길 27-12,전라북도 익산시 웅포면 고창리 511-1,36.0984923781,126.8870872251,영업,,1993-12-29,,전라북도 익산시청,2023-06-08,4680000,전라북도 익산시
대맹경로당,경로당,전라북도 익산시 웅포면 대맹길 22-7,전라북도 익산시 웅포면 맹산리 134-4,36.111391,126.8897794252,영업,,1995-04-11,,전라북도 익산시청,2023-06-08,4680000,전라북도 익산시
웅포고창경로당,경로당,전라북도 익산시 웅포면 덕성길 54,전라북도 익산시 웅포면 고창리 240-1,36.0891072,126.8865703,영업,,1981-07-06,,전라북도 익산시청,2023-06-08,4680000,전라북도 익산시
동산동경로당,경로당,전라북도 익산시 웅포면 동산동길 27-1,전라북도 익산시 웅포면 맹산리 774-1,36.1011360307,126.8878753494,영업,,1982-09-05,,전라북도 익산시청,2023-06-08,4680000,전라북도 익산시
웅포상제경로당,경로당,전라북도 익산시 웅포면 붕새1길 29-6,전라북도 익산시 웅포면 대붕암리 494-1,36.1283349,126.8983152294,영업,,1996-03-18,,전라북도 익산시청,2023-06-08,4680000,전라북도 익산시
소마여자경로당,경로당,전라북도 익산시 웅포면 소마길 5,전라북도 익산시 웅포면 고창리 581-1,36.0955799,126.8839919191,영업,,1997-04-08,,전라북도 익산시청,2023-06-08,4680000,전라북도 익산시
소맹경로당,경로당,전라북도 익산시 웅포면 소맹길 26-8,전라북도 익산시 웅포면 맹산리 450,36.1084904681,126.8886077894,영업,,2000-12-29,,전라북도 익산시청,2023-06-08,4680000,전라북도 익산시
송천경로당,경로당,전라북도 익산시 웅포면 솔내길 8-4,전라북도 익산시 웅포면 송천리 172-3,36.0765770708,126.8998893753,영업,,1974-05-05,,전라북도 익산시청,2023-06-08,4680000,전라북도 익산시
웅포신촌경로당,경로당,전라북도 익산시 웅포면 송천로 22-3,전라북도 익산시 웅포면 송천리 649-5,36.0818018,126.8861081874,영업,,2001-04-17,,전라북도 익산시청,2023-06-08,4680000,전라북도 익산시
오류동여자경로당,경로당,전라북도 익산시 웅포면 오류동길 53-37,전라북도 익산시 웅포면 웅포리 411-1,36.0652782,126.8831367799,영업,,1999-03-24,,전라북도 익산시청,2023-06-08,4680000,전라북도 익산시
둔곡경로당,경로당,전라남도 신안군 지도읍 둔곡길 23-10,전라남도 신안군 지도읍 내양리 951-1,35.08569599,126.21717,영업,,2008-01-14,95,전라남도 신안군청,2023-06-05,5010000,전라남도 신안군
원대암경로당,경로당,전라북도 익산시 웅포면 원대암길 79,전라북도 익산시 웅포면 대붕암리 173-3,36.1347497,126.9024203370,영업,,1994-04-08,,전라북도 익산시청,2023-06-08,4680000,전라북도 익산시
입점경로당,경로당,전라북도 익산시 웅포면 입점고분길 44-3,전라북도 익산시 웅포면 입점리 268-1,36.0506835,126.8749612747,영업,,1997-02-19,,전라북도 익산시청,2023-06-08,4680000,전라북도 익산시
하제경로당,경로당,전라북도 익산시 웅포면 제성1길 6,전라북도 익산시 웅포면 제성리 642-1,36.1230194,126.8905598,영업,,1995-03-29,,전라북도 익산시청,2023-06-08,4680000,전라북도 익산시
매곡지종경로당,경로당,전라북도 익산시 웅포면 지성길 103,전라북도 익산시 웅포면 제성리 434-4,36.1162554117,126.8994812707,영업,,1998-05-11,,전라북도 익산시청,2023-06-08,4680000,전라북도 익산시
웅포성동경로당,경로당,전라북도 익산시 웅포면 지성길 185,전라북도 익산시 웅포면 제성리 207-1,36.1116516,126.9059629,영업,,2008-03-20,,전라북도 익산시청,2023-06-08,4680000,전라북도 익산시
진소경로당,경로당,전라북도 익산시 웅포면 참빗길 77,전라북도 익산시 웅포면 송천리 491-1,36.0848539198,126.8946710954,영업,,1973-01-16,,전라북도 익산시청,2023-06-08,4680000,전라북도 익산시
웅포경로당,경로당,전라북도 익산시 웅포면 철새로 145,전라북도 익산시 웅포면 웅포리 593,36.0634545,126.8761691356,영업,,1973-12-30,,전라북도 익산시청,2023-06-08,4680000,전라북도 익산시
내난경로당,경로당,전라북도 익산시 성당면 내난길 11,전라북도 익산시 성당면 두동리 611-9,36.1167336,126.9211941377,영업,,1995-07-01,,전라북도 익산시청,2023-06-08,4680000,전라북도 익산시
성당교항경로당,경로당,전라북도 익산시 성당면 다리목길 39-2,전라북도 익산시 성당면 성당리 141-1,36.1251563,126.9260449072,영업,,1979-05-09,,전라북도 익산시청,2023-06-08,4680000,전라북도 익산시
두동경로당,경로당,전라북도 익산시 성당면 두동길 11,전라북도 익산시 성당면 두동리 377-1,36.1037710630,126.9216081218,영업,,1994-09-30,,전라북도 익산시청,2023-06-08,4680000,전라북도 익산시
부곡경로당,경로당,전라북도 익산시 성당면 부곡길 19,전라북도 익산시 성당면 부곡리 154-1,36.1122904,126.9361136845,영업,,1994-11-30,,전라북도 익산시청,2023-06-08,4680000,전라북도 익산시
상와경로당,경로당,전라북도 익산시 성당면 상중와길 74-15,전라북도 익산시 성당면 와초리 476-1,36.0761109,126.9244174247,영업,,2007-10-29,,전라북도 익산시청,2023-06-08,4680000,전라북도 익산시
성당갈산경로당,경로당,전라북도 익산시 성당면 성당로 316,전라북도 익산시 성당면 갈산리 산98-1,36.0963516,126.9312851066,영업,,1995-10-20,,전라북도 익산시청,2023-06-08,4680000,전라북도 익산시
내수산경로당,경로당,전라북도 익산시 성당면 수산길 18-1,전라북도 익산시 성당면 갈산리 225-7,36.0980754,126.9313741348,영업,,2003-03-06,,전라북도 익산시청,2023-06-08,4680000,전라북도 익산시
성포경로당,경로당,전라북도 익산시 성당면 승댕이길 9,전라북도 익산시 성당면 성당리 425,36.1293792,126.9204262247,영업,,2005-01-06,,전라북도 익산시청,2023-06-08,4680000,전라북도 익산시
성당장선경로당,경로당,전라북도 익산시 성당면 신기중앙길 6,전라북도 익산시 성당면 장선리 산69-10,36.0823795,126.9312724640,영업,,1995-10-20,,전라북도 익산시청,2023-06-08,4680000,전라북도 익산시
외수산경로당,경로당,전라북도 익산시 성당면 외수산1길 55-28,전라북도 익산시 성당면 갈산리 81-1,36.102148,126.9342883773,영업,,2008-01-08,,전라북도 익산시청,2023-06-08,4680000,전라북도 익산시
성당경로당,경로당,전라북도 익산시 성당면 월명길 26-1,전라북도 익산시 성당면 성당리 413,36.1291621070,126.9202502354,영업,,1984-05-01,,전라북도 익산시청,2023-06-08,4680000,전라북도 익산시
장전경로당,경로당,전라북도 익산시 성당면 진밭길 18,전라북도 익산시 성당면 갈산리 774-8,36.089893,126.9294232586,영업,,2002-11-14,,전라북도 익산시청,2023-06-08,4680000,전라북도 익산시
하와여성경로당,경로당,전라북도 익산시 성당면 하와길 4,전라북도 익산시 성당면 와초리 231-2,36.0731134426,126.9322490762,영업,,1995-10-11,,전라북도 익산시청,2023-06-08,4680000,전라북도 익산시
대기경로당,경로당,전라북도 익산시 성당면 한틀길 63,전라북도 익산시 성당면 대선리 607-3,36.0629527645,126.9335086209,영업,,1994-12-14,,전라북도 익산시청,2023-06-08,4680000,전라북도 익산시
간교경로당,경로당,전라북도 익산시 성당면 함낭로 307-10,전라북도 익산시 성당면 와초리 43-1,36.0738401662,126.9421858885,영업,,2002-01-31,,전라북도 익산시청,2023-06-08,4680000,전라북도 익산시
성당남성경로당,경로당,전라북도 익산시 성당면 황성로 516,전라북도 익산시 성당면 와초리 137-2,36.0707912,126.9340103516,영업,,1987-03-20,,전라북도 익산시청,2023-06-08,4680000,전라북도 익산시
회선경로당,경로당,전라북도 익산시 성당면 회선길 75,전라북도 익산시 성당면 대선리 산36-15,36.0682135945,126.9407775777,영업,,1991-04-13,,전라북도 익산시청,2023-06-08,4680000,전라북도 익산시
외두경로당,경로당,전라북도 익산시 성당면 성당로 472,전라북도 익산시 성당면 두동리 834-53,36.1068059,126.9243681457,영업,,2018-03-06,,전라북도 익산시청,2023-06-08,4680000,전라북도 익산시
내갈경로당,경로당,전라북도 익산시 성당면 내갈길 40,전라북도 익산시 성당면 갈산리 571-7,36.0976782038,126.9235732557,영업,,2009-07-23,,전라북도 익산시청,2023-06-08,4680000,전라북도 익산시
외갈경로당,경로당,전라북도 익산시 성당면 도로재길 23-1,전라북도 익산시 성당면 갈산리 546-5,36.0959091,126.9286609710,영업,,2021-03-26,,전라북도 익산시청,2023-06-08,4680000,전라북도 익산시
간이마을경로당,경로당,전라북도 익산시 용안면 용북로 213,전라북도 익산시 용안면 용두리 396-1,36.1408671,126.9584498821,영업,,2017-11-07,,전라북도 익산시청,2023-06-08,4680000,전라북도 익산시
덕용경로당,경로당,전라북도 익산시 용안면 현내로 344,전라북도 익산시 용안면 덕용리 150-1,36.1141954152,126.9501956619,영업,,1998-11-30,,전라북도 익산시청,2023-06-08,4680000,전라북도 익산시
동지산경로당,경로당,전라북도 익산시 용안면 동지산길 26-17,전라북도 익산시 용안면 동지산리 179-15,36.0906226,126.9600602357,영업,,2001-10-18,,전라북도 익산시청,2023-06-08,4680000,전라북도 익산시
법성경로당,경로당,전라북도 익산시 용안면 법성길 26,전라북도 익산시 용안면 법성리 214-5,36.1361049,126.9574452248,영업,,2000-07-20,,전라북도 익산시청,2023-06-08,4680000,전라북도 익산시
부억경로당,경로당,전라북도 익산시 용안면 용북로 62-2,전라북도 익산시 용안면 석동리 202-1,36.1325545,126.9452359856,영업,,1997-01-13,,전라북도 익산시청,2023-06-08,4680000,전라북도 익산시
태천경로당,경로당,전라남도 신안군 지도읍 동천길 655,전라남도 신안군 지도읍 태천리 1540,35.03521833,126.2422495,영업,,2009-03-24,197,전라남도 신안군청,2023-06-05,5010000,전라남도 신안군
상신경로당,경로당,전라북도 익산시 용안면 중창길 52,전라북도 익산시 용안면 중신리 322-1,36.1246325,126.9572654715,영업,,1997-08-19,,전라북도 익산시청,2023-06-08,4680000,전라북도 익산시
석동경로당,경로당,전라북도 익산시 용안면 석동길 21,전라북도 익산시 용안면 석동리 216-4,36.1339916,126.9430021789,영업,,1986-05-01,,전라북도 익산시청,2023-06-08,4680000,전라북도 익산시
석우경로당,경로당,전라북도 익산시 용안면 돌마루길 3,전라북도 익산시 용안면 법성리 3-5,36.1394261,126.9570351106,영업,,2004-12-04,,전라북도 익산시청,2023-06-08,4680000,전라북도 익산시
성치경로당,경로당,전라북도 익산시 용안면 성치길 15-29,전라북도 익산시 용안면 교동리 445-9,36.1154121935,126.9548606718,영업,,1996-07-29,,전라북도 익산시청,2023-06-08,4680000,전라북도 익산시
송곡경로당,경로당,전라북도 익산시 용안면 용안로 275,전라북도 익산시 용안면 용두리 306-7,36.1441461,126.9623713674,영업,,2006-07-20,,전라북도 익산시청,2023-06-08,4680000,전라북도 익산시
송산경로당,경로당,전라북도 익산시 용안면 송산3길 11,전라북도 익산시 용안면 송산리 234-2,36.0987746491,126.9657880988,영업,,1982-04-01,,전라북도 익산시청,2023-06-08,4680000,전라북도 익산시
신은경로당,경로당,전라북도 익산시 용안면 신은길 15,전라북도 익산시 용안면 난포리 231-2,36.1296205241,126.9405108522,영업,,1982-05-01,,전라북도 익산시청,2023-06-08,4680000,전라북도 익산시
안대경로당,경로당,전라북도 익산시 용안면 안대동길 4-1,전라북도 익산시 용안면 동지산리 124-1,36.0922635,126.9638446378,영업,,2001-10-18,,전라북도 익산시청,2023-06-08,4680000,전라북도 익산시
용두경로당,경로당,전라북도 익산시 용안면 용두길 15,전라북도 익산시 용안면 용두리 259-2,36.1452289950,126.9649535874,영업,,2003-04-03,,전라북도 익산시청,2023-06-08,4680000,전라북도 익산시
용북경로당,경로당,전라북도 익산시 용안면 용북로 143-8,전라북도 익산시 용안면 법성리 93-3,36.1367716,126.9523396593,영업,,1983-09-01,,전라북도 익산시청,2023-06-08,4680000,전라북도 익산시
용안경로당,경로당,전라북도 익산시 용안면 현내로 431,전라북도 익산시 용안면 중신리 118-1,36.1203139845,126.9567815211,영업,,1971-07-01,,전라북도 익산시청,2023-06-08,4680000,전라북도 익산시
용안교동경로당,경로당,전라북도 익산시 용안면 현내1로 96-1,전라북도 익산시 용안면 교동리 209,36.1182266,126.9531130602,영업,,2001-10-18,,전라북도 익산시청,2023-06-08,4680000,전라북도 익산시
용안성동경로당,경로당,전라북도 익산시 용안면 현내로 424,전라북도 익산시 용안면 교동리 183-2,36.1194214404,126.9560927768,영업,,2003-08-07,,전라북도 익산시청,2023-06-08,4680000,전라북도 익산시
용안송정경로당,경로당,전라북도 익산시 용안면 용안로 157,전라북도 익산시 용안면 창리 283,36.1348325,126.9622680600,영업,,2009-03-13,,전라북도 익산시청,2023-06-08,4680000,전라북도 익산시
용안연동경로당,경로당,전라북도 익산시 용안면 현내로 260-3,전라북도 익산시 용안면 덕용리 77-1,36.1080747,126.9443406317,영업,,1980-03-01,,전라북도 익산시청,2023-06-08,4680000,전라북도 익산시
용안용남경로당,경로당,전라북도 익산시 용안면 입산1길 6,전라북도 익산시 용안면 동지산리 282-14,36.0954461,126.9597401377,영업,,1979-11-01,,전라북도 익산시청,2023-06-08,4680000,전라북도 익산시
용안용산경로당,경로당,전라북도 익산시 용안면 용안용산1길 26,전라북도 익산시 용안면 덕용리 612,36.0974925493,126.9391425583,영업,,1978-04-01,,전라북도 익산시청,2023-06-08,4680000,전라북도 익산시
용안학동경로당,경로당,전라북도 익산시 용안면 칠목학동1길 33,전라북도 익산시 용안면 칠목리 435-2,36.0935194,126.9705263765,영업,,1996-03-18,,전라북도 익산시청,2023-06-08,4680000,전라북도 익산시
용안화정경로당,경로당,전라북도 익산시 용안면 화정길 40,전라북도 익산시 용안면 칠목리 310-1,36.0961507,126.9712185148,영업,,1984-02-01,,전라북도 익산시청,2023-06-08,4680000,전라북도 익산시
웅동경로당,경로당,전라북도 익산시 용안면 곰굴길 29-32,전라북도 익산시 용안면 송산리 357-15,36.1022348,126.9652281000,영업,,1998-11-30,,전라북도 익산시청,2023-06-08,4680000,전라북도 익산시
을산경로당,경로당,전라북도 익산시 용안면 건지매길 4,전라북도 익산시 용안면 법성리 384-1,36.1351299,126.9484607294,영업,,1998-12-01,,전라북도 익산시청,2023-06-08,4680000,전라북도 익산시
을산여성경로당,경로당,전라북도 익산시 용안면 을동길 1,전라북도 익산시 용안면 법성리 74,36.1357692,126.9517277797,영업,,2018-06-14,,전라북도 익산시청,2023-06-08,4680000,전라북도 익산시
자라경로당,경로당,전라북도 익산시 용안면 자라길 21-4,전라북도 익산시 용안면 창리 398-2,36.1237910313,126.9637818592,영업,,1996-01-24,,전라북도 익산시청,2023-06-08,4680000,전라북도 익산시
중신경로당,경로당,전라북도 익산시 용안면 중신1길 7,전라북도 익산시 용안면 중신리 122-11,36.1210803,126.9572906159,영업,,1996-01-12,,전라북도 익산시청,2023-06-08,4680000,전라북도 익산시
중화경로당,경로당,전라북도 익산시 용안면 하신1길 38,전라북도 익산시 용안면 중신리 289-2,36.1233104,126.9582463,영업,,2002-03-15,,전라북도 익산시청,2023-06-08,4680000,전라북도 익산시
창리경로당,경로당,전라북도 익산시 용안면 중창길 106,전라북도 익산시 용안면 창리 510-7,36.1291507,126.9593052,영업,,2008-01-15,,전라북도 익산시청,2023-06-08,4680000,전라북도 익산시
칠목경로당,경로당,전라북도 익산시 용안면 칠목1길 43,전라북도 익산시 용안면 칠목리 37-1,36.0882438,126.9776868,영업,,1979-11-01,,전라북도 익산시청,2023-06-08,4680000,전라북도 익산시
하신경로당,경로당,전라북도 익산시 용안면 하신1길 6,전라북도 익산시 용안면 중신리 143-4,36.1211371,126.9594426,영업,,2002-03-15,,전라북도 익산시청,2023-06-08,4680000,전라북도 익산시
하북지경로당,경로당,전라북도 익산시 낭산면 하북지길 23,전라북도 익산시 낭산면 삼담리 407-4,36.073256,127.0134032753,영업,,2009-10-06,,전라북도 익산시청,2023-06-08,4680000,전라북도 익산시
낭산경로당,경로당,전라북도 익산시 낭산면 함낭로 955-2,전라북도 익산시 낭산면 삼담리 554-19,36.0781121,127.0105113,영업,,1976-04-10,,전라북도 익산시청,2023-06-08,4680000,전라북도 익산시
낭산부녀경로당,경로당,전라북도 익산시 낭산면 낭산중앙로 403,전라북도 익산시 낭산면 삼담리 554-16,36.0768649,127.0095519,영업,,1998-12-01,,전라북도 익산시청,2023-06-08,4680000,전라북도 익산시
죽산경로당,경로당,전라북도 익산시 낭산면 죽산길 37,전라북도 익산시 낭산면 삼담리 698-3,36.0775392,127.0060305,영업,,2008-01-08,,전라북도 익산시청,2023-06-08,4680000,전라북도 익산시
오미경로당,경로당,전라북도 익산시 낭산면 오미길 9,전라북도 익산시 낭산면 삼담리 993-4,36.077716,126.998539,영업,,2004-01-07,,전라북도 익산시청,2023-06-08,4680000,전라북도 익산시
상북지경로당,경로당,전라북도 익산시 낭산면 상북지길 19,전라북도 익산시 낭산면 삼담리 192-39,36.0781651,127.0190198,영업,,2016-11-08,,전라북도 익산시청,2023-06-08,4680000,전라북도 익산시
내돈경로당,경로당,전라북도 익산시 낭산면 내외돈길 36,전라북도 익산시 낭산면 호암리 177-4,36.0663805,127.0203934,영업,,1998-05-11,,전라북도 익산시청,2023-06-08,4680000,전라북도 익산시
호암부녀경로당,경로당,전라북도 익산시 낭산면 호암신동길 16,전라북도 익산시 낭산면 호암리 430-3,36.0684005,127.0112382,영업,,1996-05-28,,전라북도 익산시청,2023-06-08,4680000,전라북도 익산시
호암경로당,경로당,전라북도 익산시 낭산면 호암신동길 16-4,전라북도 익산시 낭산면 호암리 431-4,36.0682743,127.011216,영업,,1982-04-01,,전라북도 익산시청,2023-06-08,4680000,전라북도 익산시
신북경로당,경로당,전라북도 익산시 낭산면 신북1길 2,전라북도 익산시 낭산면 석천리 297-8,36.0553048,127.0499219,영업,,2002-03-07,,전라북도 익산시청,2023-06-08,4680000,전라북도 익산시
상석경로당,경로당,전라북도 익산시 낭산면 상석1길 41,전라북도 익산시 낭산면 석천리 776-3,36.064301,127.0448483,영업,,2009-12-30,,전라북도 익산시청,2023-06-08,4680000,전라북도 익산시
석천경로당,경로당,전라북도 익산시 낭산면 남천로 598-11,전라북도 익산시 낭산면 석천리 1390,36.0672541957,127.0412739576,영업,,2005-06-13,,전라북도 익산시청,2023-06-08,4680000,전라북도 익산시
석천대경로당,경로당,전라북도 익산시 낭산면 석천대1길 1,전라북도 익산시 낭산면 석천리 934-1,36.0744797,127.0388815,영업,,2004-03-09,,전라북도 익산시청,2023-06-08,4680000,전라북도 익산시
호천경로당,경로당,전라북도 익산시 낭산면 호천길 114-3,전라북도 익산시 낭산면 석천리 1037-1,36.0837523,127.0363946,영업,,2004-10-21,,전라북도 익산시청,2023-06-08,4680000,전라북도 익산시
마산경로당,경로당,전라북도 익산시 낭산면 함낭로 1295-91,전라북도 익산시 낭산면 석천리 634,36.0732547,127.0472512,영업,,2014-08-27,,전라북도 익산시청,2023-06-08,4680000,전라북도 익산시
상낭경로당,경로당,전라북도 익산시 낭산면 아리랑로 818,전라북도 익산시 낭산면 낭산리 428-2,36.055311,127.0317201,영업,,1994-11-03,,전라북도 익산시청,2023-06-08,4680000,전라북도 익산시
하낭경로당,경로당,전라북도 익산시 낭산면 하낭길 30-4,전라북도 익산시 낭산면 낭산리 378-1,36.0556002,127.0286392,영업,,1999-05-14,,전라북도 익산시청,2023-06-08,4680000,전라북도 익산시
우금경로당,경로당,전라북도 익산시 낭산면 우금길 14,전라북도 익산시 낭산면 낭산리 684-1,36.0620537,127.0252672,영업,,1997-05-15,,전라북도 익산시청,2023-06-08,4680000,전라북도 익산시
외성경로당,경로당,전라북도 익산시 낭산면 외성길 39,전라북도 익산시 낭산면 성남리 127,36.0450712,127.0246007341,영업,,2004-11-22,,전라북도 익산시청,2023-06-08,4680000,전라북도 익산시
내성경로당,경로당,전라북도 익산시 낭산면 내성길 12,전라북도 익산시 낭산면 성남리 312,36.0461927,127.0225766,영업,,1997-01-30,,전라북도 익산시청,2023-06-08,4680000,전라북도 익산시
성남경로당,경로당,전라북도 익산시 낭산면 강변1길 4,전라북도 익산시 낭산면 성남리 436-5,36.0458691,127.0171698,영업,,1981-03-15,,전라북도 익산시청,2023-06-08,4680000,전라북도 익산시
장평경로당,경로당,전라북도 익산시 낭산면 장평길 24-5,전라북도 익산시 낭산면 구평리 23-11,36.0549932,127.0171408,영업,,2009-01-13,,전라북도 익산시청,2023-06-08,4680000,전라북도 익산시
노동경로당,경로당,전라북도 익산시 낭산면 노동길 46,전라북도 익산시 낭산면 구평리 512,36.0620744,127.0000444,영업,,2007-05-08,,전라북도 익산시청,2023-06-08,4680000,전라북도 익산시
구평상단경로당,경로당,전라북도 익산시 낭산면 상단길 9-4,전라북도 익산시 낭산면 구평리 710-1,36.0546697,127.0080265,영업,,1990-02-20,,전라북도 익산시청,2023-06-08,4680000,전라북도 익산시
구평하단경로당,경로당,전라북도 익산시 낭산면 하맹길 229,전라북도 익산시 낭산면 구평리 152-6,36.057525,127.003343,영업,,1985-04-11,,전라북도 익산시청,2023-06-08,4680000,전라북도 익산시
맹동경로당,경로당,전라북도 익산시 낭산면 하맹길 101-5,전라북도 익산시 낭산면 구평리 942-1,36.0489706,126.9989612,영업,,1996-05-03,,전라북도 익산시청,2023-06-08,4680000,전라북도 익산시
가산경로당,경로당,전라북도 익산시 낭산면 함낭로 695-8,전라북도 익산시 낭산면 용기리 271,36.0767814,126.9847729,영업,,2009-12-30,,전라북도 익산시청,2023-06-08,4680000,전라북도 익산시
낭산장등경로당,경로당,전라북도 익산시 낭산면 장등1길 24,전라북도 익산시 낭산면 용기리 420,36.0679207,126.98608,영업,,2010-07-02,,전라북도 익산시청,2023-06-08,4680000,전라북도 익산시
덕영동부녀경로당,경로당,전라북도 익산시 낭산면 덕영동길 31,전라북도 익산시 낭산면 용기리 634-1,36.0624883,126.9873036047,영업,,1996-10-17,,전라북도 익산시청,2023-06-08,4680000,전라북도 익산시
낭산용성경로당,경로당,전라북도 익산시 낭산면 중리길 4,전라북도 익산시 낭산면 용기리 669-1,36.0601066803,126.9887982956,영업,,1971-02-09,,전라북도 익산시청,2023-06-08,4680000,전라북도 익산시
중리여성경로당,경로당,전라북도 익산시 낭산면 중리길 4,전라북도 익산시 낭산면 용기리 669-1,36.0601066803,126.9887982956,영업,,1993-09-14,,전라북도 익산시청,2023-06-08,4680000,전라북도 익산시
한기경로당,경로당,전라북도 익산시 낭산면 한기1길 8,전라북도 익산시 낭산면 용기리 937-1,36.050906,126.9900073,영업,,1999-05-14,,전라북도 익산시청,2023-06-08,4680000,전라북도 익산시
하한경로당,경로당,전라북도 익산시 낭산면 한기1길 35,전라북도 익산시 낭산면 용기리 978-1,36.052449,126.9915431,영업,,2002-01-25,,전라북도 익산시청,2023-06-08,4680000,전라북도 익산시
소도마을경로당,경로당,전라북도 익산시 낭산면 소도1길 37-9,전라북도 익산시 낭산면 용기리 1192-6,36.048375,126.9866295,영업,,2002-08-02,,전라북도 익산시청,2023-06-08,4680000,전라북도 익산시
고산경로당,경로당,전라북도 익산시 망성면 여강로 788-8,전라북도 익산시 망성면 무형리 1486-14,36.1147134,127.0401409,영업,,1995-10-20,,전라북도 익산시청,2023-06-08,4680000,전라북도 익산시
금지경로당,경로당,전라북도 익산시 망성면 금지길 24,전라북도 익산시 망성면 화산리 654-1,36.1243666,126.9955566,영업,,1998-02-10,,전라북도 익산시청,2023-06-08,4680000,전라북도 익산시
금호경로당,경로당,전라북도 익산시 망성면 신작길 14,전라북도 익산시 망성면 신작리 853-2,36.1455522,127.0073557,영업,,1986-03-02,,전라북도 익산시청,2023-06-08,4680000,전라북도 익산시
낭청내신경로당,경로당,전라북도 익산시 망성면 신작길 41,전라북도 익산시 망성면 신작리 831-8,36.1443516,127.0101068,영업,,1982-01-09,,전라북도 익산시청,2023-06-08,4680000,전라북도 익산시
라암경로당,경로당,전라북도 익산시 망성면 나바위3길 5-6,전라북도 익산시 망성면 화산리 1035-2,36.1354192,126.9979824,영업,,1999-09-17,,전라북도 익산시청,2023-06-08,4680000,전라북도 익산시
라평경로당,경로당,전라북도 익산시 망성면 라평1길 67-2,전라북도 익산시 망성면 화산리 103-2,36.1340781,127.0033552,영업,,1999-04-13,,전라북도 익산시청,2023-06-08,4680000,전라북도 익산시
망성교항경로당,경로당,전라북도 익산시 망성면 내촌다리목길 56-1,전라북도 익산시 망성면 내촌리 1117-30,36.0887573,127.0597185,영업,,2011-01-10,,전라북도 익산시청,2023-06-08,4680000,전라북도 익산시
망성신성경로당,경로당,전라북도 익산시 망성면 신작신성길 92,전라북도 익산시 망성면 신작리 246-1,36.1361703,127.0236867,영업,,2009-09-24,,전라북도 익산시청,2023-06-08,4680000,전라북도 익산시
망성장선경로당,경로당,전라북도 익산시 망성면 신리1길 5,전라북도 익산시 망성면 장선리 248-1,36.1260726,127.0261409,영업,,1989-02-15,,전라북도 익산시청,2023-06-08,4680000,전라북도 익산시
망성하발경로당,경로당,전라북도 익산시 망성면 어량하발1길 5,전라북도 익산시 망성면 어량리 166-2,36.0880586,127.0412643,영업,,2009-01-08,,전라북도 익산시청,2023-06-08,4680000,전라북도 익산시
망성화정경로당,경로당,전라북도 익산시 망성면 내촌화정길 6-9,전라북도 익산시 망성면 내촌리 89-1,36.1008818,127.0490224,영업,,2003-11-27,,전라북도 익산시청,2023-06-08,4680000,전라북도 익산시
무평경로당,경로당,전라북도 익산시 망성면 무평2길 29,전라북도 익산시 망성면 무형리 354-1,36.1241577,127.0414654,영업,,1979-03-18,,전라북도 익산시청,2023-06-08,4680000,전라북도 익산시
무형경로당,경로당,전라북도 익산시 망성면 선리1길 22,전라북도 익산시 망성면 무형리 525-1,36.1326602,127.0451315,영업,,1990-01-04,,전라북도 익산시청,2023-06-08,4680000,전라북도 익산시
발산경로당,경로당,전라북도 익산시 망성면 망성로 246-2,전라북도 익산시 망성면 내촌리 624-4,36.094623,127.0413832,영업,,1995-10-20,,전라북도 익산시청,2023-06-08,4680000,전라북도 익산시
상포경로당,경로당,전라북도 익산시 망성면 소펄1길 290,전라북도 익산시 망성면 화산리 1201-143,36.1407506,126.9944402,영업,,2006-01-11,,전라북도 익산시청,2023-06-08,4680000,전라북도 익산시
석곡경로당,경로당,전라북도 익산시 망성면 석곡길 40,전라북도 익산시 망성면 장선리 343-15,36.118556,127.0282222,영업,,1995-10-20,,전라북도 익산시청,2023-06-08,4680000,전라북도 익산시
수월경로당,경로당,전라북도 익산시 망성면 무네미1길 9-5,전라북도 익산시 망성면 신작리 559-4,36.136467,127.0172162,영업,,1988-03-01,,전라북도 익산시청,2023-06-08,4680000,전라북도 익산시
신당경로당,경로당,전라북도 익산시 망성면 신작길 112,전라북도 익산시 망성면 신작리 637-2,36.139654,127.0150659,영업,,2005-01-17,,전라북도 익산시청,2023-06-08,4680000,전라북도 익산시
신덕경로당,경로당,전라북도 익산시 망성면 신덕길 21,전라북도 익산시 망성면 화산리 235-16,36.1290816,127.0086917,영업,,1993-04-01,,전라북도 익산시청,2023-06-08,4680000,전라북도 익산시
신용경로당,경로당,전라북도 익산시 망성면 신용길 11,전라북도 익산시 망성면 무형리 81-1,36.1410636,127.043692,영업,,1993-01-04,,전라북도 익산시청,2023-06-08,4680000,전라북도 익산시
신풍경로당,경로당,전라북도 익산시 망성면 신풍길 86,전라북도 익산시 망성면 무형리 1283-3,36.1133906,127.0492389,영업,,2014-08-27,,전라북도 익산시청,2023-06-08,4680000,전라북도 익산시
야정경로당,경로당,전라북도 익산시 망성면 야정1길 19,전라북도 익산시 망성면 어량리 622-4,36.1010053,127.0360961,영업,,2009-12-30,,전라북도 익산시청,2023-06-08,4680000,전라북도 익산시
어남경로당,경로당,전라북도 익산시 망성면 어량길 42,전라북도 익산시 망성면 어량리 1170-1,36.1060084,127.0238908,영업,,2008-11-27,,전라북도 익산시청,2023-06-08,4680000,전라북도 익산시
어량경로당,경로당,전라북도 익산시 망성면 어동길 13-8,전라북도 익산시 망성면 어량리 1235-1,36.1062889,127.0267785,영업,,1985-01-04,,전라북도 익산시청,2023-06-08,4680000,전라북도 익산시
왕촌경로당,경로당,전라북도 익산시 망성면 왕촌길 25,전라북도 익산시 망성면 어량리 536-1,36.1009249,127.0396363,영업,,2014-11-17,,전라북도 익산시청,2023-06-08,4680000,전라북도 익산시
하작경로당,경로당,전라북도 익산시 망성면 하작길 4,전라북도 익산시 망성면 신작리 716-5,36.145919,127.0166894,영업,,2002-01-25,,전라북도 익산시청,2023-06-08,4680000,전라북도 익산시
호산경로당,경로당,전라북도 익산시 망성면 내촌1길 7,전라북도 익산시 망성면 내촌리 697-2,36.0918531,127.0538802,영업,,1995-10-20,,전라북도 익산시청,2023-06-08,4680000,전라북도 익산시
화산경로당,경로당,전라북도 익산시 망성면 나바위길 51-5,전라북도 익산시 망성면 화산리 1142-44,36.1369477,126.9995156,영업,,1995-09-05,,전라북도 익산시청,2023-06-08,4680000,전라북도 익산시
망성부평경로당,경로당,전라북도 익산시 망성면 화산1길 62,전라북도 익산시 망성면 화산리 918-4,36.126854,126.9954454,영업,,2019-04-09,,전라북도 익산시청,2023-06-08,4680000,전라북도 익산시
망성동촌경로당,경로당,전라북도 익산시 망성면 내촌동촌길 27,전라북도 익산시 망성면 내촌리 64-1,36.1027964272,127.045692,영업,,2022-01-19,,전라북도 익산시청,2023-06-08,4680000,전라북도 익산시
미동경로당,경로당,전라북도 익산시 망성면 여강로 565-24,전라북도 익산시 망성면 내촌리 460,36.0973587232,127.0501450611,영업,,2022-08-30,,전라북도 익산시청,2023-06-08,4680000,전라북도 익산시
호월경로당,경로당,전라북도 익산시 여산면 호산길 252,전라북도 익산시 여산면 호산리 37-1,36.0476041675,127.1145939,영업,,2011-01-11,,전라북도 익산시청,2023-06-08,4680000,전라북도 익산시
남산경로당,경로당,전라북도 익산시 여산면 제남남산길 65,전라북도 익산시 여산면 제남리 73-3,36.0464457,127.079986,영업,,2005-11-11,,전라북도 익산시청,2023-06-08,4680000,전라북도 익산시
진사경로당,경로당,전라북도 익산시 여산면 가람1길 64,전라북도 익산시 여산면 원수리 570-5,36.0362832,127.0855814,영업,,2002-03-07,,전라북도 익산시청,2023-06-08,4680000,전라북도 익산시
관연경로당,경로당,전라북도 익산시 여산면 관연길 80-1,전라북도 익산시 여산면 태성리 618-1,36.0528409,127.1114185,영업,,2014-05-13,,전라북도 익산시청,2023-06-08,4680000,전라북도 익산시
원태경로당,경로당,전라북도 익산시 여산면 구원태길 53,전라북도 익산시 여산면 태성리 581-1,36.0580681,127.107408,영업,,2005-12-13,,전라북도 익산시청,2023-06-08,4680000,전라북도 익산시
사천경로당,경로당,전라북도 익산시 춘포면 사천길 37,전라북도 익산시 춘포면 용연리 185-10,35.9003159,127.0329209,영업,,1979-04-26,,전라북도 익산시청,2023-06-08,4680000,전라북도 익산시
여산석교경로당,경로당,전라북도 익산시 여산면 제남석교길 64-5,전라북도 익산시 여산면 제남리 829-2,36.0417466,127.0827421,영업,,1994-04-01,,전라북도 익산시청,2023-06-08,4680000,전라북도 익산시
가재경로당,경로당,전라북도 익산시 여산면 가재길 11-39,전라북도 익산시 여산면 두여리 1176-4,36.0715545,127.0603671,영업,,2015-06-26,,전라북도 익산시청,2023-06-08,4680000,전라북도 익산시
동촌경로당,경로당,전라북도 익산시 여산면 여산동촌길 27-4,전라북도 익산시 여산면 여산리 512-3,36.0580479,127.0879935,영업,,2010-07-16,,전라북도 익산시청,2023-06-08,4680000,전라북도 익산시
누항경로당,경로당,전라북도 익산시 여산면 태성길 554,전라북도 익산시 여산면 태성리 63,36.0613711,127.1318048,영업,,2007-01-19,,전라북도 익산시청,2023-06-08,4680000,전라북도 익산시
유점경로당,경로당,전라북도 익산시 여산면 유점길 9,전라북도 익산시 여산면 호산리 87-17,36.0413065,127.1100928,영업,,2005-01-03,,전라북도 익산시청,2023-06-08,4680000,전라북도 익산시
용기경로당,경로당,전라북도 익산시 여산면 용기길 66,전라북도 익산시 여산면 두여리 562-4,36.0761642,127.0688656,영업,,2001-10-11,,전라북도 익산시청,2023-06-08,4680000,전라북도 익산시
수은경로당,경로당,전라북도 익산시 여산면 수은길 101,전라북도 익산시 여산면 두여리 210-110,36.0823613,127.0682315,영업,,2005-03-30,,전라북도 익산시청,2023-06-08,4680000,전라북도 익산시
여산경로당,경로당,전라북도 익산시 여산면 동헌길 15,전라북도 익산시 여산면 여산리 444,36.0595093,127.0859795,영업,,1980-06-02,,전라북도 익산시청,2023-06-08,4680000,전라북도 익산시
신부경로당,경로당,전라북도 익산시 여산면 신부길 23,전라북도 익산시 여산면 호산리 386,36.0452159,127.0955254,영업,,2007-03-20,,전라북도 익산시청,2023-06-08,4680000,전라북도 익산시
상양경로당,경로당,전라북도 익산시 여산면 서동요길 179,전라북도 익산시 여산면 원수리 1107-6,36.023906,127.0772828,영업,,2001-01-29,,전라북도 익산시청,2023-06-08,4680000,전라북도 익산시
태성리경로당,경로당,전라북도 익산시 여산면 태성1길 99,전라북도 익산시 여산면 태성리 826-6,36.0618072,127.1024005,영업,,2003-12-29,,전라북도 익산시청,2023-06-08,4680000,전라북도 익산시
두여경로당,경로당,전라북도 익산시 여산면 여강로 257,전라북도 익산시 여산면 두여리 산154,36.072292,127.0632007,영업,,1992-10-01,,전라북도 익산시청,2023-06-08,4680000,전라북도 익산시
여산금곡경로당,경로당,전라북도 익산시 여산면 두여길 43,전라북도 익산시 여산면 두여리 748-19,36.0676971,127.0791861,영업,,1994-05-02,,전라북도 익산시청,2023-06-08,4680000,전라북도 익산시
서촌경로당,경로당,전라북도 익산시 여산면 여강로 22-5,전라북도 익산시 여산면 여산리 412-15,36.058906,127.0827334,영업,,2017-02-21,,전라북도 익산시청,2023-06-08,4680000,전라북도 익산시
옥금동경로당,경로당,전라북도 익산시 여산면 옥금동길 97,전라북도 익산시 여산면 제남리 655-5,36.0550267,127.0659837,영업,,1996-05-01,,전라북도 익산시청,2023-06-08,4680000,전라북도 익산시
여산학동경로당,경로당,전라북도 익산시 여산면 여산학동길 39-4,전라북도 익산시 여산면 원수리 158-1,36.0367401,127.1049468,영업,,1998-01-05,,전라북도 익산시청,2023-06-08,4680000,전라북도 익산시
외사경로당,경로당,전라북도 익산시 여산면 호산길 161,전라북도 익산시 여산면 호산리 256-5,36.0464904,127.1059718,영업,,2001-12-19,,전라북도 익산시청,2023-06-08,4680000,전라북도 익산시
영전경로당,경로당,전라북도 익산시 여산면 동헌길 47,전라북도 익산시 여산면 여산리 224-5,36.0617273,127.0845789,영업,,1999-12-01,,전라북도 익산시청,2023-06-08,4680000,전라북도 익산시
신막경로당,경로당,전라북도 익산시 여산면 가람로 125,전라북도 익산시 여산면 원수리 353-1,36.0368916,127.0915651,영업,,1994-06-01,,전라북도 익산시청,2023-06-08,4680000,전라북도 익산시
후석경로당,경로당,전라북도 익산시 여산면 여강로 50-17,전라북도 익산시 여산면 제남리 328-4,36.060519,127.0804087,영업,,2020-03-27,,전라북도 익산시청,2023-06-08,4680000,전라북도 익산시
원촌경로당,경로당,전라북도 익산시 금마면 미륵사지로5길 5,전라북도 익산시 금마면 서고도리 266-8,35.9907227,127.0497215,영업,,2009-12-30,,전라북도 익산시청,2023-06-08,4680000,전라북도 익산시
천마동경로당,경로당,전라북도 익산시 금마면 천마동길 12-1,전라북도 익산시 금마면 동고도리 1018-79,35.9806010221,127.0551528,영업,,2004-03-09,,전라북도 익산시청,2023-06-08,4680000,전라북도 익산시
한샘말경로당,경로당,전라북도 익산시 금마면 금마4길 33,전라북도 익산시 금마면 동고도리 780-8,35.9920286,127.0559193,영업,,1995-10-20,,전라북도 익산시청,2023-06-08,4680000,전라북도 익산시
금마경로당,경로당,전라북도 익산시 금마면 고도길 65,전라북도 익산시 금마면 동고도리 719-2,35.9926639,127.0541942,영업,,1992-08-13,,전라북도 익산시청,2023-06-08,4680000,전라북도 익산시
금마교동경로당,경로당,전라북도 익산시 금마면 고도7길 9-1,전라북도 익산시 금마면 동고도리 382,35.9963173,127.0583401,영업,,2009-01-08,,전라북도 익산시청,2023-06-08,4680000,전라북도 익산시
금마구정경로당,경로당,전라북도 익산시 금마면 고도4길 21,전라북도 익산시 금마면 동고도리 625-3,35.9943045,127.0533214,영업,,2006-09-29,,전라북도 익산시청,2023-06-08,4680000,전라북도 익산시
금마신촌경로당,경로당,전라북도 익산시 금마면 고도신촌길 22-4,전라북도 익산시 금마면 동고도리 39-1,35.9900472,127.0674511,영업,,2008-02-01,,전라북도 익산시청,2023-06-08,4680000,전라북도 익산시
옥두말경로당,경로당,전라북도 익산시 금마면 미륵사지로3길 8-9,전라북도 익산시 금마면 동고도리 804-11,35.9902914,127.0550753,영업,,2000-11-13,,전라북도 익산시청,2023-06-08,4680000,전라북도 익산시
천마동여자경로당,경로당,전라북도 익산시 금마면 궁성로 770,전라북도 익산시 금마면 동고도리 1019-23,35.9809515,127.0540709,영업,,2010-09-28,,전라북도 익산시청,2023-06-08,4680000,전라북도 익산시
금마상제경로당,경로당,전라북도 익산시 금마면 아리랑로 9-34,전라북도 익산시 금마면 서고도리 87-1,35.9969596,127.048989,영업,,1998-08-31,,전라북도 익산시청,2023-06-08,4680000,전라북도 익산시
금마구룡경로당,경로당,전라북도 익산시 금마면 구룡길 62,전라북도 익산시 금마면 신용리 649-1,36.0113164,127.0439264,영업,,2001-01-29,,전라북도 익산시청,2023-06-08,4680000,전라북도 익산시
도천경로당,경로당,전라북도 익산시 금마면 금마호수길 1,전라북도 익산시 금마면 신용리 400-1,36.0094202,127.0529411,영업,,1998-01-20,,전라북도 익산시청,2023-06-08,4680000,전라북도 익산시
선도(진변)경로당,경로당,전라남도 신안군 지도읍 선도길 14-5,전라남도 신안군 지도읍 선도리 284-3,34.97697852,126.2694906,영업,,1996-01-06,66,전라남도 신안군청,2023-06-05,5010000,전라남도 신안군
미륵수성당경로당,경로당,전라북도 익산시 금마면 미륵사지로 208,전라북도 익산시 금마면 신용리 727-9,36.0032525,127.0430020043,영업,,1994-03-15,,전라북도 익산시청,2023-06-08,4680000,전라북도 익산시
노상경로당,경로당,전라북도 익산시 금마면 용순길 329,전라북도 익산시 금마면 용순리 741-16,36.0085635,127.0275839,영업,,1997-08-12,,전라북도 익산시청,2023-06-08,4680000,전라북도 익산시
동편경로당,경로당,전라북도 익산시 금마면 용순1길 93,전라북도 익산시 금마면 용순리 299-2,36.0029026,127.0320762,영업,,1971-06-29,,전라북도 익산시청,2023-06-08,4680000,전라북도 익산시
기양경로당,경로당,전라북도 익산시 금마면 기양길 17,전라북도 익산시 금마면 기양리 251-9,36.0157026,127.0211879,영업,,1994-06-29,,전라북도 익산시청,2023-06-08,4680000,전라북도 익산시
금마갈산경로당,경로당,전라북도 익산시 금마면 갈산길 3,전라북도 익산시 금마면 갈산리 164-5,35.9993128,127.0015749,영업,,1979-03-29,,전라북도 익산시청,2023-06-08,4680000,전라북도 익산시
각봉경로당,경로당,전라북도 익산시 금마면 갈산길 54,전라북도 익산시 금마면 갈산리 67-4,36.000066,127.0069208,영업,,2016-01-13,,전라북도 익산시청,2023-06-08,4680000,전라북도 익산시
서편경로당,경로당,전라북도 익산시 금마면 용순길 253,전라북도 익산시 금마면 용순리 659-2,36.0028325,127.0235802,영업,,2016-10-24,,전라북도 익산시청,2023-06-08,4680000,전라북도 익산시
금마 테라스경로당,경로당,"전라북도 익산시 금마면 고도9길 42, 110동 (미륵산 더 테라스)",전라북도 익산시 금마면 동고도리 1180,35.9998445,127.0623531,영업,,2019-12-03,,전라북도 익산시청,2023-06-08,4680000,전라북도 익산시
견우상춘당경로당,경로당,전라북도 익산시 왕궁면 견우길 36,전라북도 익산시 왕궁면 흥암리 147-3,35.9656014283,127.0927687,영업,,2003-07-09,,전라북도 익산시청,2023-06-08,4680000,전라북도 익산시
왕궁관동경로당,경로당,전라북도 익산시 왕궁면 관동길 23,전라북도 익산시 왕궁면 평장리 27-2,35.968477,127.0705369,영업,,2014-01-09,,전라북도 익산시청,2023-06-08,4680000,전라북도 익산시
구봉경로당,경로당,전라북도 익산시 왕궁면 봉암길 2,전라북도 익산시 왕궁면 구덕리 479-10,35.9408239,127.0811428,영업,,2004-12-15,,전라북도 익산시청,2023-06-08,4680000,전라북도 익산시
구은동경로당,경로당,전라북도 익산시 왕궁면 구은동길 13-23,전라북도 익산시 왕궁면 온수리 8-241,35.934484,127.0844432,영업,,2006-01-02,,전라북도 익산시청,2023-06-08,4680000,전라북도 익산시
궁평경로당,경로당,전라북도 익산시 왕궁면 궁평길 4,전라북도 익산시 왕궁면 왕궁리 105-14,35.9727958,127.0704299,영업,,2004-12-17,,전라북도 익산시청,2023-06-08,4680000,전라북도 익산시
근남경로당,경로당,전라북도 익산시 왕궁면 평장길 69-74,전라북도 익산시 왕궁면 평장리 182-3,35.9642057,127.0629504,영업,,1997-05-19,,전라북도 익산시청,2023-06-08,4680000,전라북도 익산시
금광경로당,경로당,전라북도 익산시 왕궁면 금광길 68-6,전라북도 익산시 왕궁면 동용리 602-18,35.9912159,127.1062394,영업,,2005-01-14,,전라북도 익산시청,2023-06-08,4680000,전라북도 익산시
금오경로당,경로당,전라북도 익산시 왕궁면 금오1길 12,전라북도 익산시 왕궁면 온수리 230-3,35.9325257,127.068794,영업,,2006-03-02,,전라북도 익산시청,2023-06-08,4680000,전라북도 익산시
금육동경로당,경로당,전라북도 익산시 왕궁면 금오3길 21-22,전라북도 익산시 왕궁면 온수리 239-1,35.9303818,127.0669792,영업,,1995-06-07,,전라북도 익산시청,2023-06-08,4680000,전라북도 익산시
남양동경로당,경로당,전라북도 익산시 왕궁면 왕궁로 152,전라북도 익산시 왕궁면 온수리 18-216,35.9336586,127.0789502,영업,,2009-10-30,,전라북도 익산시청,2023-06-08,4680000,전라북도 익산시
동면경로당,경로당,전라북도 익산시 왕궁면 동촌제길 167,전라북도 익산시 왕궁면 동촌리 345-4,35.983129,127.0796559,영업,,1999-04-29,,전라북도 익산시청,2023-06-08,4680000,전라북도 익산시
동봉경로당,경로당,전라북도 익산시 왕궁면 연정1길 22-1,전라북도 익산시 왕궁면 동봉리 152-1,36.0107553,127.1014044652,영업,,1993-06-16,,전라북도 익산시청,2023-06-08,4680000,전라북도 익산시
동통경로당,경로당,전라북도 익산시 왕궁면 동용길 296,전라북도 익산시 왕궁면 동용리 57-5,36.0130227,127.1172771,영업,,1999-05-29,,전라북도 익산시청,2023-06-08,4680000,전라북도 익산시
마동경로당,경로당,전라북도 익산시 왕궁면 흥암1길 142-1,전라북도 익산시 왕궁면 흥암리 832,35.9616714,127.0755593,영업,,2004-08-16,,전라북도 익산시청,2023-06-08,4680000,전라북도 익산시
봉광동경로당,경로당,전라북도 익산시 왕궁면 구덕길 107,전라북도 익산시 왕궁면 구덕리 47-125,35.9372703,127.0899384,영업,,2008-01-30,,전라북도 익산시청,2023-06-08,4680000,전라북도 익산시
부상경로당,경로당,전라북도 익산시 왕궁면 도순길 34,전라북도 익산시 왕궁면 도순리 183-1,35.9919932,127.0746997961,영업,,1995-10-16,,전라북도 익산시청,2023-06-08,4680000,전라북도 익산시
사곡경로당,경로당,전라북도 익산시 왕궁면 사곡1길 4,전라북도 익산시 왕궁면 광암리 562-17,35.9834966,127.0946481,영업,,2003-10-28,,전라북도 익산시청,2023-06-08,4680000,전라북도 익산시
상동경로당,경로당,전라북도 익산시 왕궁면 상동길 23,전라북도 익산시 왕궁면 구덕리 96-9,35.9382279,127.0867789,영업,,2008-01-30,,전라북도 익산시청,2023-06-08,4680000,전라북도 익산시
상발경로당,경로당,전라북도 익산시 왕궁면 발산길 106-1,전라북도 익산시 왕궁면 발산리 131-13,35.9523592,127.0642445,영업,,1994-07-16,,전라북도 익산시청,2023-06-08,4680000,전라북도 익산시
상암경로당,경로당,전라북도 익산시 왕궁면 상암길 34,전라북도 익산시 왕궁면 광암리 471-7,35.976894,127.0925735,영업,,2004-12-14,,전라북도 익산시청,2023-06-08,4680000,전라북도 익산시
송선경로당,경로당,전라북도 익산시 왕궁면 송선길 78,전라북도 익산시 왕궁면 광암리 147-28,35.9823002261,127.1054779,영업,,2011-12-28,,전라북도 익산시청,2023-06-08,4680000,전라북도 익산시
수성당경로당,경로당,전라북도 익산시 왕궁면 신흥길 8,전라북도 익산시 왕궁면 흥암리 508-10,35.9673183,127.08909,영업,,1992-09-16,,전라북도 익산시청,2023-06-08,4680000,전라북도 익산시
시대경로당,경로당,전라북도 익산시 왕궁면 시대길 37,전라북도 익산시 왕궁면 도순리 443-13,35.9995567,127.0796502,영업,,2004-12-17,,전라북도 익산시청,2023-06-08,4680000,전라북도 익산시
왕궁신기경로당,경로당,전라북도 익산시 왕궁면 흥암길 153-29,전라북도 익산시 왕궁면 흥암리 187-146,35.9609415,127.0978626,영업,,2008-05-06,,전라북도 익산시청,2023-06-08,4680000,전라북도 익산시
반도경로당,경로당,전라북도 익산시 춘포면 반도길 17,전라북도 익산시 춘포면 인수리 192-1,35.9252169,127.0405546,영업,,1980-03-01,,전라북도 익산시청,2023-06-08,4680000,전라북도 익산시
왕궁신기촌경로당,경로당,전라북도 익산시 왕궁면 평장1길 9,전라북도 익산시 왕궁면 평장리 298-40,35.9586167,127.0584853,영업,,2009-09-28,,전라북도 익산시청,2023-06-08,4680000,전라북도 익산시
신정경로당,경로당,전라북도 익산시 왕궁면 왕궁신정길 24-65,전라북도 익산시 왕궁면 왕궁리 368-9,35.9740618,127.0627896,영업,,1997-04-19,,전라북도 익산시청,2023-06-08,4680000,전라북도 익산시
신촌농장경로당,경로당,전라북도 익산시 왕궁면 공소길 1-19,전라북도 익산시 왕궁면 구덕리 79-35,35.9323067,127.0893433,영업,,2012-03-14,,전라북도 익산시청,2023-06-08,4680000,전라북도 익산시
신흥경로당,경로당,전라북도 익산시 왕궁면 신흥길 2,전라북도 익산시 왕궁면 흥암리 508-6,35.9671774,127.0894668,영업,,2004-12-17,,전라북도 익산시청,2023-06-08,4680000,전라북도 익산시
쌍제경로당,경로당,전라북도 익산시 왕궁면 쌍제오룡길 44,전라북도 익산시 왕궁면 쌍제리 197,35.9371458,127.0650478,영업,,1988-04-22,,전라북도 익산시청,2023-06-08,4680000,전라북도 익산시
안림경로당,경로당,전라북도 익산시 왕궁면 안림길 41,전라북도 익산시 왕궁면 도순리 113-3,35.9952957,127.0740431,영업,,2005-01-03,,전라북도 익산시청,2023-06-08,4680000,전라북도 익산시
앵금경로당,경로당,전라북도 익산시 왕궁면 앵금1길 11-1,전라북도 익산시 왕궁면 구덕리 711,35.9479403,127.0692463,영업,,2010-03-29,,전라북도 익산시청,2023-06-08,4680000,전라북도 익산시
양동마을경로당,경로당,전라북도 익산시 왕궁면 양곡길 31-4,전라북도 익산시 왕궁면 동봉리 385-2,36.0213675,127.106302,영업,,2006-01-04,,전라북도 익산시청,2023-06-08,4680000,전라북도 익산시
예원동경로당,경로당,전라북도 익산시 왕궁면 왕궁로 102-14,전라북도 익산시 왕궁면 온수리 17-51,35.9288572,127.0783914,영업,,2016-12-08,,전라북도 익산시청,2023-06-08,4680000,전라북도 익산시
온수경로당,경로당,전라북도 익산시 왕궁면 온수길 86,전라북도 익산시 왕궁면 온수리 482-6,35.9248243,127.0644349,영업,,1993-09-07,,전라북도 익산시청,2023-06-08,4680000,전라북도 익산시
왕궁갈전경로당,경로당,전라북도 익산시 왕궁면 흥암갈전길 3,전라북도 익산시 왕궁면 흥암리 290-1,35.9576051,127.0860684,영업,,1993-09-19,,전라북도 익산시청,2023-06-08,4680000,전라북도 익산시
왕궁용남경로당,경로당,전라북도 익산시 왕궁면 용남길 23-1,전라북도 익산시 왕궁면 동용리 528-9,35.9927472,127.098758,영업,,2005-01-14,,전라북도 익산시청,2023-06-08,4680000,전라북도 익산시
용화경로당,경로당,전라북도 익산시 왕궁면 화곡길 24-2,전라북도 익산시 왕궁면 용화리 33,36.0101894,127.0824873,영업,,1996-10-10,,전라북도 익산시청,2023-06-08,4680000,전라북도 익산시
이거경로당,경로당,전라북도 익산시 왕궁면 이탄길 3,전라북도 익산시 왕궁면 구덕리 232-4,35.9485945,127.0835404,영업,,2002-01-14,,전라북도 익산시청,2023-06-08,4680000,전라북도 익산시
장중경로당,경로당,전라북도 익산시 왕궁면 장중길 97,전라북도 익산시 왕궁면 광암리 326-1,35.9684888,127.0952732,영업,,2003-09-18,,전라북도 익산시청,2023-06-08,4680000,전라북도 익산시
칠복동경로당,경로당,전라북도 익산시 왕궁면 구은동길 12,전라북도 익산시 왕궁면 온수리 18-212,35.9339694,127.083166,영업,,2009-01-28,,전라북도 익산시청,2023-06-08,4680000,전라북도 익산시
평리경로당,경로당,전라북도 익산시 왕궁면 평리길 40,전라북도 익산시 왕궁면 흥암리 873-7,35.9587004903,127.0770596,영업,,2001-02-13,,전라북도 익산시청,2023-06-08,4680000,전라북도 익산시
평화촌경로당,경로당,전라북도 익산시 왕궁면 평화촌1길 10,전라북도 익산시 왕궁면 흥암리 681-133,35.9528568,127.0817182,영업,,2009-01-13,,전라북도 익산시청,2023-06-08,4680000,전라북도 익산시
왕궁하발경로당,경로당,전라북도 익산시 왕궁면 하발길 6,전라북도 익산시 왕궁면 발산리 330-5,35.9500907,127.0590154,영업,,1996-10-07,,전라북도 익산시청,2023-06-08,4680000,전라북도 익산시
학재마을경로당,경로당,전라북도 익산시 왕궁면 동용길 108,전라북도 익산시 왕궁면 동용리 296,35.9993076,127.1078518,영업,,2011-12-28,,전라북도 익산시청,2023-06-08,4680000,전라북도 익산시
학호경로당,경로당,전라북도 익산시 왕궁면 학호길 42-24,전라북도 익산시 왕궁면 온수리 178-25,35.9266142,127.0738461,영업,,2008-01-08,,전라북도 익산시청,2023-06-08,4680000,전라북도 익산시
황암경로당,경로당,전라북도 익산시 왕궁면 황암길 44-3,전라북도 익산시 왕궁면 구덕리 580-1,35.9385978,127.0727534,영업,,2000-12-29,,전라북도 익산시청,2023-06-08,4680000,전라북도 익산시
후암경로당,경로당,전라북도 익산시 왕궁면 후암길 31,전라북도 익산시 왕궁면 흥암리 471-14,35.9685866,127.0849407,영업,,2003-09-19,,전라북도 익산시청,2023-06-08,4680000,전라북도 익산시
춘포갈전경로당,경로당,전라북도 익산시 춘포면 갈전길 53,전라북도 익산시 춘포면 창평리 669-1,35.9555232,127.0307047,영업,,1998-09-04,,전라북도 익산시청,2023-06-08,4680000,전라북도 익산시
광동경로당,경로당,전라북도 익산시 춘포면 광동1길 50,전라북도 익산시 춘포면 오산리 669-2,35.9301866,127.016378,영업,,2001-11-12,,전라북도 익산시청,2023-06-08,4680000,전라북도 익산시
고려온천@경로당,경로당,전라북도 익산시 춘포면 궁성로 124,전라북도 익산시 춘포면 쌍정리 160-1,35.9250928,127.0536206,영업,,2004-07-06,,전라북도 익산시청,2023-06-08,4680000,전라북도 익산시
노적경로당,경로당,전라북도 익산시 춘포면 노적길 20-10,전라북도 익산시 춘포면 신동리 379-3,35.946859,127.0204912,영업,,2007-02-05,,전라북도 익산시청,2023-06-08,4680000,전라북도 익산시
덕신경로당,경로당,전라북도 익산시 춘포면 덕동1길 6,전라북도 익산시 춘포면 덕실리 555-4,35.9122818,126.9986661,영업,,1989-04-27,,전라북도 익산시청,2023-06-08,4680000,전라북도 익산시
시전경로당,경로당,전라북도 익산시 춘포면 덕실1길 221-3,전라북도 익산시 춘포면 덕실리 12-15,35.915717,127.0098294,영업,,1983-10-15,,전라북도 익산시청,2023-06-08,4680000,전라북도 익산시
원덕실경로당,경로당,전라북도 익산시 춘포면 덕실길 87-10,전라북도 익산시 춘포면 덕실리 35-26,35.9089111,127.0035229,영업,,1997-08-28,,전라북도 익산시청,2023-06-08,4680000,전라북도 익산시
문덕경로당,경로당,전라북도 익산시 춘포면 문덕길 33,전라북도 익산시 춘포면 오산리 544-5,35.9349334,127.0225272,영업,,1980-01-15,,전라북도 익산시청,2023-06-08,4680000,전라북도 익산시
문종경로당,경로당,전라북도 익산시 춘포면 문종길 32,전라북도 익산시 춘포면 인수리 462-2,35.9200632,127.0358541,영업,,1980-04-29,,전라북도 익산시청,2023-06-08,4680000,전라북도 익산시
춘포신동경로당,경로당,전라북도 익산시 춘포면 미등골길 217,전라북도 익산시 춘포면 신동리 328-1,35.9501934,127.0215339,영업,,2006-01-26,,전라북도 익산시청,2023-06-08,4680000,전라북도 익산시
삼포경로당,경로당,전라북도 익산시 춘포면 삼포길 67,전라북도 익산시 춘포면 삼포리 339-2,35.9200722,126.9977397,영업,,1997-12-23,,전라북도 익산시청,2023-06-08,4680000,전라북도 익산시
춘포신촌부녀경로당,경로당,전라북도 익산시 춘포면 신촌1길 24,전라북도 익산시 춘포면 춘포리 120,35.8981574,127.0035047,영업,,2014-03-20,,전라북도 익산시청,2023-06-08,4680000,전라북도 익산시
심암경로당,경로당,전라북도 익산시 춘포면 심암길 70-1,전라북도 익산시 춘포면 신동리 438-1,35.9453812,127.0189037,영업,,2008-07-01,,전라북도 익산시청,2023-06-08,4680000,전라북도 익산시
쌍정경로당,경로당,전라북도 익산시 춘포면 쌍정길 11,전라북도 익산시 춘포면 쌍정리 163-1,35.9233595,127.0520195,영업,,1999-07-19,,전라북도 익산시청,2023-06-08,4680000,전라북도 익산시
궁월경로당,경로당,전라북도 익산시 춘포면 쌍정길 136,전라북도 익산시 춘포면 인수리 40,35.9272,127.039319,영업,,2005-12-29,,전라북도 익산시청,2023-06-08,4680000,전라북도 익산시
엽동경로당,경로당,전라북도 익산시 춘포면 엽동길 96-2,전라북도 익산시 춘포면 창평리 337-5,35.9562073,127.0447516,영업,,2005-12-29,,전라북도 익산시청,2023-06-08,4680000,전라북도 익산시
입석경로당,경로당,전라북도 익산시 춘포면 입석길 8,전라북도 익산시 춘포면 쌍정리 280-16,35.9368352,127.0513456,영업,,1975-11-06,,전라북도 익산시청,2023-06-08,4680000,전라북도 익산시
장연경로당,경로당,전라북도 익산시 춘포면 장연길 12,전라북도 익산시 춘포면 용연리 164-3,35.9088745,127.0318654,영업,,1980-12-01,,전라북도 익산시청,2023-06-08,4680000,전라북도 익산시
중촌경로당,경로당,전라북도 익산시 춘포면 춘포4길 46,전라북도 익산시 춘포면 춘포리 54-4,35.8989143,127.0062695,영업,,2002-08-19,,전라북도 익산시청,2023-06-08,4680000,전라북도 익산시
창평경로당,경로당,전라북도 익산시 춘포면 창평길 58,전라북도 익산시 춘포면 창평리 189-4,35.9637204,127.043798,영업,,1992-08-07,,전라북도 익산시청,2023-06-08,4680000,전라북도 익산시
담월경로당,경로당,전라북도 익산시 춘포면 천서길 135,전라북도 익산시 춘포면 천서리 437-1,35.9389761,127.0316336,영업,,1972-03-15,,전라북도 익산시청,2023-06-08,4680000,전라북도 익산시
안수경로당,경로당,전라북도 익산시 춘포면 천서길 239,전라북도 익산시 춘포면 천서리 119-12,35.9454129,127.0376389,영업,,1987-04-15,,전라북도 익산시청,2023-06-08,4680000,전라북도 익산시
춘포원오산경로당,경로당,전라북도 익산시 춘포면 천서길 59-5,전라북도 익산시 춘포면 오산리 244-1,35.9339051,127.0269019,영업,,1980-02-02,,전라북도 익산시청,2023-06-08,4680000,전라북도 익산시
초평경로당,경로당,전라북도 익산시 춘포면 초삼길 9,전라북도 익산시 춘포면 천동리 82-1,35.9442391,127.0528134,영업,,1994-06-27,,전라북도 익산시청,2023-06-08,4680000,전라북도 익산시
회화경로당,경로당,전라북도 익산시 춘포면 춘포4길 17,전라북도 익산시 춘포면 춘포리 892-18,35.9006536248,127.0082976062,영업,,1989-09-05,,전라북도 익산시청,2023-06-08,4680000,전라북도 익산시
춘포신촌경로당,경로당,전라북도 익산시 춘포면 춘포4길 80,전라북도 익산시 춘포면 춘포리 145-7,35.8972526,127.0030261,영업,,1971-02-01,,전라북도 익산시청,2023-06-08,4680000,전라북도 익산시
신호경로당,경로당,전라북도 익산시 춘포면 춘포5길 4,전라북도 익산시 춘포면 용연리 628-12,35.9028144,127.0133947,영업,,1983-03-01,,전라북도 익산시청,2023-06-08,4680000,전라북도 익산시
역전경로당,경로당,전라북도 익산시 춘포면 춘포로 335-3,전라북도 익산시 춘포면 춘포리 37-28,35.902195,127.0034384,영업,,1982-02-25,,전라북도 익산시청,2023-06-08,4680000,전라북도 익산시
판문경로당,경로당,전라북도 익산시 춘포면 판문길 22,전라북도 익산시 춘포면 용연리 529-6,35.9011338,127.0184589,영업,,1982-06-01,,전라북도 익산시청,2023-06-08,4680000,전라북도 익산시
판문부녀경로당,경로당,전라북도 익산시 춘포면 판문길 37,전라북도 익산시 춘포면 용연리 545-3,35.900618,127.0201558,영업,,1996-09-20,,전라북도 익산시청,2023-06-08,4680000,전라북도 익산시
학연경로당,경로당,전라북도 익산시 춘포면 학연길 77,전라북도 익산시 춘포면 천동리 457-1,35.9412139,127.0456253,영업,,1994-05-27,,전라북도 익산시청,2023-06-08,4680000,전라북도 익산시
화평경로당,경로당,전라북도 익산시 춘포면 화평길 47-1,전라북도 익산시 춘포면 인수리 413-1,35.9196392,127.0308016,영업,,1980-03-30,,전라북도 익산시청,2023-06-08,4680000,전라북도 익산시
구담경로당,경로당,전라북도 익산시 춘포면 구담1길 19,전라북도 익산시 춘포면 춘포리 314-1,35.8873749,126.9983387,영업,,2020-04-09,,전라북도 익산시청,2023-06-08,4680000,전라북도 익산시
하표경로당,경로당,전라북도 익산시 삼기면 간촌2길 61,전라북도 익산시 삼기면 간촌리 290-4,36.0154146,126.9818037675,영업,,2008-02-27,,전라북도 익산시청,2023-06-08,4680000,전라북도 익산시
삼기상정마을경로당,경로당,전라북도 익산시 삼기면 황금로 505,전라북도 익산시 삼기면 간촌리 147-95,36.0203824,126.983204,영업,,2016-07-25,,전라북도 익산시청,2023-06-08,4680000,전라북도 익산시
삼기경로당,경로당,전라북도 익산시 삼기면 원서두길 8,전라북도 익산시 삼기면 간촌리 89-32,36.0213732,126.9796315,영업,,1980-06-01,,전라북도 익산시청,2023-06-08,4680000,전라북도 익산시
서두경로당,경로당,전라북도 익산시 삼기면 원서두길 56,전라북도 익산시 삼기면 서두리 537-1,36.018503,126.9755854,영업,,1998-03-20,,전라북도 익산시청,2023-06-08,4680000,전라북도 익산시
하갈경로당,경로당,전라북도 익산시 삼기면 서두길 16,전라북도 익산시 삼기면 서두리 310-20,36.024526,126.9719889,영업,,2003-11-14,,전라북도 익산시청,2023-06-08,4680000,전라북도 익산시
옥실경로당,경로당,전라북도 익산시 삼기면 옥실길 96,전라북도 익산시 삼기면 오룡리 469-1,36.0314467,126.9901473,영업,,2010-07-16,,전라북도 익산시청,2023-06-08,4680000,전라북도 익산시
검지경로당,경로당,전라북도 익산시 삼기면 검지2길 8-8,전라북도 익산시 삼기면 오룡리 502-15,36.0345037,126.990107,영업,,2008-11-27,,전라북도 익산시청,2023-06-08,4680000,전라북도 익산시
신도마경로당,경로당,전라북도 익산시 삼기면 산단도마2길 25-9,전라북도 익산시 삼기면 오룡리 1180,36.0358911,126.9856551,영업,,2006-07-20,,전라북도 익산시청,2023-06-08,4680000,전라북도 익산시
삼기구정경로당,경로당,전라북도 익산시 삼기면 구정길 18-7,전라북도 익산시 삼기면 오룡리 51-2,36.0271861,126.997537,영업,,2004-10-12,,전라북도 익산시청,2023-06-08,4680000,전라북도 익산시
사오랑경로당,경로당,전라북도 익산시 삼기면 사오랑길 6,전라북도 익산시 삼기면 오룡리 356-18,36.0246445,126.9945105,영업,,2006-01-11,,전라북도 익산시청,2023-06-08,4680000,전라북도 익산시
석불경로당,경로당,전라북도 익산시 삼기면 삼기길 367,전라북도 익산시 삼기면 연동리 637-12,36.0284584,127.0081703,영업,,2010-11-11,,전라북도 익산시청,2023-06-08,4680000,전라북도 익산시
삼기연동경로당,경로당,전라북도 익산시 삼기면 연동1길 20,전라북도 익산시 삼기면 연동리 558-2,36.0341576,127.0094314,영업,,2010-10-06,,전라북도 익산시청,2023-06-08,4680000,전라북도 익산시
채산경로당,경로당,전라북도 익산시 삼기면 채산길 98,전라북도 익산시 삼기면 연동리 362-1,36.0415732,127.0059079,영업,,2009-12-30,,전라북도 익산시청,2023-06-08,4680000,전라북도 익산시
죽청마을경로당,경로당,전라북도 익산시 삼기면 죽청길 69,전라북도 익산시 삼기면 연동리 153,36.0330161442,127.0191839009,영업,,2011-01-11,,전라북도 익산시청,2023-06-08,4680000,전라북도 익산시
현동경로당,경로당,전라북도 익산시 삼기면 현동길 6,전라북도 익산시 삼기면 기산리 342,36.0247003826,127.01697,영업,,2006-01-11,,전라북도 익산시청,2023-06-08,4680000,전라북도 익산시
원기산경로당,경로당,전라북도 익산시 삼기면 원기산1길 17,전라북도 익산시 삼기면 기산리 162-3,36.0166409,127.0136225,영업,,2003-12-12,,전라북도 익산시청,2023-06-08,4680000,전라북도 익산시
기산경로당,경로당,전라북도 익산시 삼기면 삼기길 150,전라북도 익산시 삼기면 기산리 557-52,36.0099798,127.0030748,영업,,1982-08-01,,전라북도 익산시청,2023-06-08,4680000,전라북도 익산시
석기경로당,경로당,전라북도 익산시 삼기면 석기길 54,전라북도 익산시 삼기면 기산리 829-9,36.0143057,126.9966144,영업,,2006-10-17,,전라북도 익산시청,2023-06-08,4680000,전라북도 익산시
용연경로당,경로당,전라북도 익산시 삼기면 대제길 20-23,전라북도 익산시 삼기면 용연리 332-16,36.0023549,126.9898005,영업,,1993-12-01,,전라북도 익산시청,2023-06-08,4680000,전라북도 익산시
화실경로당,경로당,전라북도 익산시 용동면 광두원길 49,전라북도 익산시 용동면 화실리 524-1,36.09419,126.991019,영업,,2005-12-23,,전라북도 익산시청,2023-06-08,4680000,전라북도 익산시
농소경로당,경로당,전라북도 익산시 용동면 농소길 17,전라북도 익산시 용동면 구산리 1139-1,36.1282053,126.9877624,영업,,2001-08-30,,전라북도 익산시청,2023-06-08,4680000,전라북도 익산시
당하경로당,경로당,전라북도 익산시 용동면 당하길 32,전라북도 익산시 용동면 용성리 168-6,36.1118535,126.9870719,영업,,1999-11-06,,전라북도 익산시청,2023-06-08,4680000,전라북도 익산시
대조경로당,경로당,전라북도 익산시 용동면 대조길 38,전라북도 익산시 용동면 대조리 653-4,36.1130546,126.9973921,영업,,2003-01-09,,전라북도 익산시청,2023-06-08,4680000,전라북도 익산시
용동신왕경로당,경로당,전라북도 익산시 용동면 대조신왕1길 37,전라북도 익산시 용동면 대조리 519-4,36.1076184,127.0041625,영업,,2004-03-09,,전라북도 익산시청,2023-06-08,4680000,전라북도 익산시
돈다산경로당,경로당,전라북도 익산시 용동면 돈다산길 41,전라북도 익산시 용동면 흥왕리 415-9,36.1042619,126.9899117,영업,,1997-12-27,,전라북도 익산시청,2023-06-08,4680000,전라북도 익산시
두무경로당,경로당,전라북도 익산시 용동면 두무길 16,전라북도 익산시 용동면 대조리 248-3,36.1170632,127.0049761,영업,,1996-10-09,,전라북도 익산시청,2023-06-08,4680000,전라북도 익산시
두무2리경로당,경로당,전라북도 익산시 용동면 두무2길 28-3,전라북도 익산시 용동면 대조리 1150,36.1176508,127.0019283,영업,,2004-01-12,,전라북도 익산시청,2023-06-08,4680000,전라북도 익산시
비야경로당,경로당,전라북도 익산시 용동면 비야1길 37,전라북도 익산시 용동면 대조리 351-1,36.113368,127.008108,영업,,2002-01-31,,전라북도 익산시청,2023-06-08,4680000,전라북도 익산시
용동양촌경로당,경로당,전라북도 익산시 용동면 양촌1길 36-16,전라북도 익산시 용동면 화실리 61-12,36.0927087,126.9984454,영업,,1999-04-23,,전라북도 익산시청,2023-06-08,4680000,전라북도 익산시
용동연화경로당,경로당,전라북도 익산시 용동면 연화길 13,전라북도 익산시 용동면 화실리 산60-1,36.0978791484,126.9879327687,영업,,2009-12-30,,전라북도 익산시청,2023-06-08,4680000,전라북도 익산시
용동경로당,경로당,전라북도 익산시 용동면 용동1길 88-26,전라북도 익산시 용동면 대조리 822-7,36.1101453,126.9932473,영업,,1991-11-06,,전라북도 익산시청,2023-06-08,4680000,전라북도 익산시
용동용성경로당,경로당,전라북도 익산시 용동면 용동로 392-2,전라북도 익산시 용동면 용성리 278-1,36.1164316,126.9860759,영업,,1995-11-06,,전라북도 익산시청,2023-06-08,4680000,전라북도 익산시
구산경로당,경로당,전라북도 익산시 용동면 용동로 455,전라북도 익산시 용동면 구산리 226-2,36.1200465,126.9805214,영업,,1997-07-12,,전라북도 익산시청,2023-06-08,4680000,전라북도 익산시
사결경로당,경로당,전라북도 익산시 용동면 진북로 1351-44,전라북도 익산시 용동면 대조리 9-5,36.1166726,127.0176962,영업,,2002-11-29,,전라북도 익산시청,2023-06-08,4680000,전라북도 익산시
화배경로당,경로당,전라북도 익산시 용동면 화배1길 8-4,전라북도 익산시 용동면 화배리 383-1,36.0877014,127.0060668,영업,,2014-07-23,,전라북도 익산시청,2023-06-08,4680000,전라북도 익산시
용동신화경로당,경로당,전라북도 익산시 용동면 화배신화길 26,전라북도 익산시 용동면 화배리 180-2,36.0946261,127.010127,영업,,2004-10-15,,전라북도 익산시청,2023-06-08,4680000,전라북도 익산시
용동고창경로당,경로당,전라북도 익산시 용동면 화왕로 38,전라북도 익산시 용동면 화실리 264-1,36.0821463,126.9943155,영업,,1997-02-27,,전라북도 익산시청,2023-06-08,4680000,전라북도 익산시
흥왕경로당,경로당,전라북도 익산시 용동면 흥왕길 52-2,전라북도 익산시 용동면 흥왕리 169-4,36.1048247,126.9997113,영업,,1998-08-24,,전라북도 익산시청,2023-06-08,4680000,전라북도 익산시
용동와동경로당,경로당,전라북도 익산시 용동면 와동길 41,전라북도 익산시 용동면 흥왕리 300-4,36.0984333,126.9987341,영업,,2019-01-10,,전라북도 익산시청,2023-06-08,4680000,전라북도 익산시
철우경로당,경로당,전라북도 익산시 익산대로 153,전라북도 익산시 창인동2가 1,35.9418635,126.9473098801,영업,,1995-01-24,,전라북도 익산시청,2023-06-08,4680000,전라북도 익산시
적십자경로당,경로당,전라북도 익산시 익산대로 153,전라북도 익산시 창인동2가 1,35.9418635,126.9473098801,영업,,1977-11-11,,전라북도 익산시청,2023-06-08,4680000,전라북도 익산시
중앙경로당,경로당,전라북도 익산시 중앙로 12-233 (중앙동2가),전라북도 익산시 중앙동2가 40-9,35.9379416,126.9479577,영업,,1995-05-10,,전라북도 익산시청,2023-06-08,4680000,전라북도 익산시
행우경로당,경로당,전라북도 익산시 중앙로 22-184 (중앙동2가),전라북도 익산시 중앙동2가 54-1,35.9378806,126.9486714,영업,,2005-03-02,,전라북도 익산시청,2023-06-08,4680000,전라북도 익산시
창인경로당,경로당,전라북도 익산시 중앙로1길 40-5,전라북도 익산시 창인동1가 108-14,35.9431372,126.9499005,영업,,1953-01-10,,전라북도 익산시청,2023-06-08,4680000,전라북도 익산시
갈산경로당,경로당,"전라북도 익산시 인북로14길 12 (갈산동, 1층 ,2층)",전라북도 익산시 갈산동 249-3,35.9366104451,126.953637,영업,,1995-09-04,,전라북도 익산시청,2023-06-08,4680000,전라북도 익산시
만세경로당,경로당,전라북도 익산시 중앙로7길 36 (창인동1가),전라북도 익산시 창인동1가 203-9,35.9416712,126.9530267,영업,,2009-11-16,,전라북도 익산시청,2023-06-08,4680000,전라북도 익산시
익산철도관사마을경로당,경로당,전라북도 익산시 익산대로3길 1-11 (창인동2가),전라북도 익산시 창인동2가 1-221,35.9364477,126.9446607,영업,,2018-03-23,,전라북도 익산시청,2023-06-08,4680000,전라북도 익산시
평화경로당,경로당,전라북도 익산시 평동로3길 15-8 (평화동),전라북도 익산시 평화동 42-13,35.9336017093,126.9466352,영업,,1970-03-01,,전라북도 익산시청,2023-06-08,4680000,전라북도 익산시
무네미경로당,경로당,전라북도 익산시 평동로8길 14-12 (평화동),전라북도 익산시 평화동 358-4,35.9336052,126.9409791,영업,,2003-01-09,,전라북도 익산시청,2023-06-08,4680000,전라북도 익산시
평화제일@경로당,경로당,전라북도 익산시 번영로8길 223 (평화동),전라북도 익산시 평화동 370,35.9323687,126.9410731,영업,,2002-12-20,,전라북도 익산시청,2023-06-08,4680000,전라북도 익산시
목천경로당,경로당,전라북도 익산시 목상길 11 (목천동),전라북도 익산시 목천동 280,35.9217849,126.934854,영업,,1970-03-01,,전라북도 익산시청,2023-06-08,4680000,전라북도 익산시
신광경로당,경로당,전라북도 익산시 신광길 30 (목천동),전라북도 익산시 목천동 73-44,35.9273292,126.92247,영업,,2014-08-11,,전라북도 익산시청,2023-06-08,4680000,전라북도 익산시
부농경로당,경로당,전라북도 익산시 부농길 38 (목천동),전라북도 익산시 목천동 1097-70,35.9216388,126.9145644,영업,,2012-01-05,,전라북도 익산시청,2023-06-08,4680000,전라북도 익산시
한스빌@경로당,경로당,전라북도 익산시 목천로 30-14 (목천동),전라북도 익산시 목천동 1376-1,35.9155839,126.9340747,영업,,2007-05-29,,전라북도 익산시청,2023-06-08,4680000,전라북도 익산시
향촌경로당,경로당,전라북도 익산시 이목상길 4 (목천동),전라북도 익산시 목천동 407-1,35.91735,126.9333907,영업,,1960-03-01,,전라북도 익산시청,2023-06-08,4680000,전라북도 익산시
목천부녀경로당,경로당,전라북도 익산시 이목상길 4 (목천동),전라북도 익산시 목천동 407-1,35.91735,126.9333907,영업,,1960-03-01,,전라북도 익산시청,2023-06-08,4680000,전라북도 익산시
목천원주@경로당,경로당,전라북도 익산시 목천로 50 (목천동),전라북도 익산시 목천동 396-1,35.9184319,126.9341255,영업,,2002-09-06,,전라북도 익산시청,2023-06-08,4680000,전라북도 익산시
이목상경로당,경로당,전라북도 익산시 이목상길 48-6 (목천동),전라북도 익산시 목천동 320-1,35.9202138,126.9361494,영업,,2013-12-27,,전라북도 익산시청,2023-06-08,4680000,전라북도 익산시
새뜰경로당,경로당,전라북도 익산시 익산대로 73-18 (평화동),전라북도 익산시 평화동 133-30,35.9342665,126.9442588,영업,,2021-12-03,,전라북도 익산시청,2023-06-08,4680000,전라북도 익산시
제이파크경로당,경로당,전라북도 익산시 서동로 31 (인화동2가),전라북도 익산시 인화동2가 54,35.9310302594,126.9564079455,영업,,2007-07-24,,전라북도 익산시청,2023-06-08,4680000,전라북도 익산시
신천경로당,경로당,전라북도 익산시 신천길 37,전라북도 익산시 인화동2가 365-1,35.9187818,126.9494815,영업,,2002-09-27,,전라북도 익산시청,2023-06-08,4680000,전라북도 익산시
인화경로당,경로당,전라북도 익산시 중앙로4길 56-7 (인화동1가),전라북도 익산시 인화동1가 95-8,35.9337006,126.9529517,영업,,1962-08-08,,전라북도 익산시청,2023-06-08,4680000,전라북도 익산시
동이리경로당,경로당,전라북도 익산시 평동로15길 6-16 (인화동2가),전라북도 익산시 인화동2가 56-6,35.9307096,126.9559188,영업,,1999-12-07,,전라북도 익산시청,2023-06-08,4680000,전라북도 익산시
구슬목경로당,경로당,전라북도 익산시 서동로7길 36 (주현동),전라북도 익산시 주현동 196-13,35.9356493,126.9584604,영업,,2009-12-30,,전라북도 익산시청,2023-06-08,4680000,전라북도 익산시
한양@경로당,경로당,전라북도 익산시 주현로 40 (주현동),전라북도 익산시 주현동 202,35.9336732,126.9568746,영업,,1990-10-23,,전라북도 익산시청,2023-06-08,4680000,전라북도 익산시
이리경로당,경로당,전라북도 익산시 중앙로10길 8 (주현동),전라북도 익산시 주현동 45-3,35.9375341,126.9567617,영업,,1980-03-04,,전라북도 익산시청,2023-06-08,4680000,전라북도 익산시
익산인화 행복주택 경로당,경로당,전라북도 익산시 목천로 320 (인화동2가),전라북도 익산시 인화동2가 109-2,35.9267938719,126.9542333553,영업,,2018-05-09,,전라북도 익산시청,2023-06-08,4680000,전라북도 익산시
나룻가경로당,경로당,전라북도 익산시 나룻가신천길 4-13 (인화동2가),전라북도 익산시 인화동2가 142-7,35.9257543,126.9504965,영업,,2020-08-26,,전라북도 익산시청,2023-06-08,4680000,전라북도 익산시
간리경로당,경로당,전라북도 익산시 간리1길 49 (석탄동),전라북도 익산시 석탄동 351-15,35.899115,126.9816789,영업,,1996-08-31,,전라북도 익산시청,2023-06-08,4680000,전라북도 익산시
강경경로당,경로당,전라북도 익산시 강경2길 16 (금강동),전라북도 익산시 금강동 1105-17,35.9179052,126.9897759,영업,,1997-12-01,,전라북도 익산시청,2023-06-08,4680000,전라북도 익산시
고제경로당,경로당,전라북도 익산시 유천고제길 47 (석탄동),전라북도 익산시 석탄동 971,35.916641,126.9604824,영업,,1996-08-13,,전라북도 익산시청,2023-06-08,4680000,전라북도 익산시
금강경로당,경로당,전라북도 익산시 서동로32길 69 (금강동),전라북도 익산시 금강동 498-2,35.9347604,126.9775039,영업,,1996-08-26,,전라북도 익산시청,2023-06-08,4680000,전라북도 익산시
동산경로당,경로당,전라북도 익산시 평동로 777-11 (동산동),전라북도 익산시 동산동 330-9,35.927612,126.9639652,영업,,1990-01-20,,전라북도 익산시청,2023-06-08,4680000,전라북도 익산시
동산금곡경로당,경로당,전라북도 익산시 평동로14길 72 (금강동),전라북도 익산시 금강동 875-1,35.9184323,126.9720086,영업,,1965-11-01,,전라북도 익산시청,2023-06-08,4680000,전라북도 익산시
동산동신@경로당,경로당,전라북도 익산시 목천로 335 (동산동),전라북도 익산시 동산동 599,35.9272459,126.9578266,영업,,1995-10-20,,전라북도 익산시청,2023-06-08,4680000,전라북도 익산시
동산라인@경로당,경로당,전라북도 익산시 동천로 81-12 (금강동),전라북도 익산시 동산동 138,35.9302204,126.9713396,영업,,1998-04-16,,전라북도 익산시청,2023-06-08,4680000,전라북도 익산시
동산비사벌@경로당,경로당,전라북도 익산시 동천로7길 53-1 (동산동),전라북도 익산시 동산동 1058,35.9323605,126.9666004,영업,,1985-10-20,,전라북도 익산시청,2023-06-08,4680000,전라북도 익산시
동산사회복지관경로당,경로당,전라북도 익산시 동천로7길 26-1 (동산동),전라북도 익산시 동산동 145,35.9321668,126.969987,영업,,1993-12-03,,전라북도 익산시청,2023-06-08,4680000,전라북도 익산시
동산삼성@경로당,경로당,전라북도 익산시 평동로12길 11 (동산동),전라북도 익산시 동산동 610-1,35.9272502,126.9596926,영업,,1993-07-29,,전라북도 익산시청,2023-06-08,4680000,전라북도 익산시
동산신성경로당,경로당,전라북도 익산시 동천로11길 17 (금강동),전라북도 익산시 금강동 605-6,35.9307399,126.9730637,영업,,1973-01-08,,전라북도 익산시청,2023-06-08,4680000,전라북도 익산시
동산양촌경로당,경로당,전라북도 익산시 서동로32길 27 (금강동),전라북도 익산시 금강동 391-1,35.9368398,126.974356,영업,,2011-04-27,,전라북도 익산시청,2023-06-08,4680000,전라북도 익산시
동산여울휴먼시아2단지@경로당,경로당,전라북도 익산시 동천로 25 (동산동),전라북도 익산시 동산동 1139,35.9295408,126.9644474,영업,,2010-03-17,,전라북도 익산시청,2023-06-08,4680000,전라북도 익산시
동산여울휴먼시아3단지@경로당,경로당,전라북도 익산시 동천로1길 7 (동산동),전라북도 익산시 동산동 1140,35.9302373,126.9669914,영업,,2010-08-11,,전라북도 익산시청,2023-06-08,4680000,전라북도 익산시
동산오투그란데@경로당,경로당,전라북도 익산시 평동로23길 16 (동산동),전라북도 익산시 동산동 1145,35.9287509,126.9631624,영업,,2021-12-13,,전라북도 익산시청,2023-06-08,4680000,전라북도 익산시
동산우남@경로당,경로당,전라북도 익산시 평동로 799 (동산동),전라북도 익산시 동산동 995-5,35.927216,126.9659156,영업,,1999-01-25,,전라북도 익산시청,2023-06-08,4680000,전라북도 익산시
동산우남남부@경로당,경로당,전라북도 익산시 목천로 346 (동산동),전라북도 익산시 동산동 609-42,35.926756,126.9588197,영업,,2004-12-04,,전라북도 익산시청,2023-06-08,4680000,전라북도 익산시
동산제일@경로당,경로당,전라북도 익산시 서동로18길 46-1 (동산동),전라북도 익산시 동산동 1053-1,35.9330194,126.9636081,영업,,1993-12-21,,전라북도 익산시청,2023-06-08,4680000,전라북도 익산시
동산제일2차@경로당,경로당,전라북도 익산시 평동로17길 5 (동산동),전라북도 익산시 동산동 667-1,35.9294923139,126.9585209550,영업,,2002-05-23,,전라북도 익산시청,2023-06-08,4680000,전라북도 익산시
동산청송경로당,경로당,전라북도 익산시 서동로12길 9 (동산동),전라북도 익산시 동산동 215-102,35.932252,126.965284,영업,,1995-10-20,,전라북도 익산시청,2023-06-08,4680000,전라북도 익산시
부평경로당,경로당,전라북도 익산시 평동로 904-6 (금강동),전라북도 익산시 금강동 719-82,35.9219409,126.9766655,영업,,1995-03-02,,전라북도 익산시청,2023-06-08,4680000,전라북도 익산시
삼호@경로당,경로당,전라북도 익산시 동천로7길 29 (동산동),전라북도 익산시 동산동 158-15,35.9306382,126.969828,영업,,1998-03-16,,전라북도 익산시청,2023-06-08,4680000,전라북도 익산시
서동경로당,경로당,"전라북도 익산시 서동로18길 50 (동산동, 오씨아이 사원아파트)",전라북도 익산시 동산동 1053,35.9341298,126.9640331,영업,,2019-01-22,,전라북도 익산시청,2023-06-08,4680000,전라북도 익산시
석탄경로당,경로당,전라북도 익산시 신복길 20 (석탄동),전라북도 익산시 석탄동 1148-2,35.902174,126.9732196,영업,,1992-02-26,,전라북도 익산시청,2023-06-08,4680000,전라북도 익산시
성륜경로당,경로당,전라북도 익산시 동천로5길 7-19 (동산동),전라북도 익산시 동산동 109-2,35.9302016,126.9681527,영업,,1992-03-02,,전라북도 익산시청,2023-06-08,4680000,전라북도 익산시
성륜부녀경로당,경로당,전라북도 익산시 동천로5길 7-19 (동산동),전라북도 익산시 동산동 109-2,35.9302016,126.9681527,영업,,1992-03-02,,전라북도 익산시청,2023-06-08,4680000,전라북도 익산시
세경2차@경로당,경로당,전라북도 익산시 동천로1길 29 (동산동),전라북도 익산시 동산동 1060,35.9311637,126.966561,영업,,1995-05-10,,전라북도 익산시청,2023-06-08,4680000,전라북도 익산시
"세경3,4차@경로당",경로당,전라북도 익산시 목천로 361 (동산동),전라북도 익산시 동산동 1142,35.9266809,126.9605971,영업,,2012-07-18,,전라북도 익산시청,2023-06-08,4680000,전라북도 익산시
옛뚝이경로당,경로당,전라북도 익산시 옛둑1길 38 (동산동),전라북도 익산시 동산동 544-35,35.9213819,126.9616102,영업,,1992-03-08,,전라북도 익산시청,2023-06-08,4680000,전라북도 익산시
용강경로당,경로당,전라북도 익산시 용강1길 26 (석탄동),전라북도 익산시 석탄동 133-40,35.9045323,126.9761388,영업,,1995-02-01,,전라북도 익산시청,2023-06-08,4680000,전라북도 익산시
우성@경로당,경로당,전라북도 익산시 서동로2길 50 (동산동),전라북도 익산시 동산동 617-5,35.9275932,126.9614831,영업,,1998-08-30,,전라북도 익산시청,2023-06-08,4680000,전라북도 익산시
운용경로당,경로당,전라북도 익산시 하나로5길 20 (금강동),전라북도 익산시 금강동 547-24,35.9334955757,126.9744501,영업,,2004-10-16,,전라북도 익산시청,2023-06-08,4680000,전라북도 익산시
유천경로당,경로당,전라북도 익산시 유천길 12 (석탄동),전라북도 익산시 석탄동 910-15,35.913875,126.9577007,영업,,1997-02-27,,전라북도 익산시청,2023-06-08,4680000,전라북도 익산시
한성@경로당,경로당,전라북도 익산시 동천로7길 47 (동산동),전라북도 익산시 동산동 1061,35.9318381,126.9676028295,영업,,2002-04-24,,전라북도 익산시청,2023-06-08,4680000,전라북도 익산시
마동주공2단지@경로당,경로당,전라북도 익산시 고봉로 116 (마동),전라북도 익산시 마동 137-1,35.9422777,126.966246,영업,,1992-10-08,,전라북도 익산시청,2023-06-08,4680000,전라북도 익산시
혜정아파트경로당,경로당,전라북도 익산시 고봉로 121 (마동),전라북도 익산시 마동 153-82,35.9430416,126.9649157,영업,,2006-06-01,,전라북도 익산시청,2023-06-08,4680000,전라북도 익산시
마동주공@경로당,경로당,전라북도 익산시 고봉로 144 (마동),전라북도 익산시 마동 165,35.9433485,126.9666224,영업,,1982-02-21,,전라북도 익산시청,2023-06-08,4680000,전라북도 익산시
마동우림@경로당,경로당,전라북도 익산시 서동로 164 (마동),전라북도 익산시 마동 70-1,35.9363015,126.9692496,영업,,1999-11-20,,전라북도 익산시청,2023-06-08,4680000,전라북도 익산시
시영@경로당,경로당,전라북도 익산시 서동로21길 13 (마동),전라북도 익산시 마동 132,35.9374798,126.9675513,영업,,1992-08-30,,전라북도 익산시청,2023-06-08,4680000,전라북도 익산시
마동공원우남@경로당,경로당,전라북도 익산시 서동로30길 34 (마동),전라북도 익산시 마동 81-32,35.9347371,126.9699461,영업,,2006-07-20,,전라북도 익산시청,2023-06-08,4680000,전라북도 익산시
스위트밸리@경로당,경로당,전라북도 익산시 선화1로 31-46 (마동),전라북도 익산시 마동 153,35.9434704,126.9643658,영업,,2006-11-03,,전라북도 익산시청,2023-06-08,4680000,전라북도 익산시
전원맨션@경로당,경로당,전라북도 익산시 선화로 316-4 (마동),전라북도 익산시 마동 153-1,35.9452476,126.9643384,영업,,2006-06-27,,전라북도 익산시청,2023-06-08,4680000,전라북도 익산시
상우@경로당(마동),경로당,전라북도 익산시 선화로22길 35 (마동),전라북도 익산시 마동 30-4,35.9427792,126.9678462,영업,,1995-09-27,,전라북도 익산시청,2023-06-08,4680000,전라북도 익산시
계선경로당,경로당,전라북도 익산시 중앙로33길 15 (마동),전라북도 익산시 마동 105-1,35.9373386,126.965202,영업,,1971-07-20,,전라북도 익산시청,2023-06-08,4680000,전라북도 익산시
고봉경로당,경로당,전라북도 익산시 고봉로12길 9 (마동),전라북도 익산시 마동 162-71,35.9436299,126.9673316,영업,,1995-12-20,,전라북도 익산시청,2023-06-08,4680000,전라북도 익산시
남성맨션남자경로당,경로당,전라북도 익산시 선화로33길 10 (남중동),전라북도 익산시 남중동 222-10,35.9473645,126.9556036,영업,,1987-08-31,,전라북도 익산시청,2023-06-08,4680000,전라북도 익산시
남성맨션여자경로당,경로당,전라북도 익산시 선화로33길 10 (남중동),전라북도 익산시 남중동 222-10,35.9473645,126.9556081,영업,,1987-08-31,,전라북도 익산시청,2023-06-08,4680000,전라북도 익산시
남향경로당,경로당,전라북도 익산시 선화로31길 22 (남중동),전라북도 익산시 남중동 217-26,35.9481135,126.953586,영업,,1991-03-20,,전라북도 익산시청,2023-06-08,4680000,전라북도 익산시
남암경로당,경로당,전라북도 익산시 익산대로11길 14 (남중동),전라북도 익산시 남중동 437-4,35.950347,126.9497141,영업,,1985-04-01,,전라북도 익산시청,2023-06-08,4680000,전라북도 익산시
장춘회경로당,경로당,전라북도 익산시 선화로29길 59 (남중동),전라북도 익산시 남중동 352-6,35.9510839,126.953163,영업,,1991-03-20,,전라북도 익산시청,2023-06-08,4680000,전라북도 익산시
우목남자경로당,경로당,전라북도 익산시 동서로23길 3 (남중동),전라북도 익산시 남중동 531-13,35.9539337,126.9584243,영업,,1985-04-08,,전라북도 익산시청,2023-06-08,4680000,전라북도 익산시
우목여자경로당,경로당,전라북도 익산시 동서로23길 3 (남중동),전라북도 익산시 남중동 531-13,35.9539337,126.9584243,영업,,1998-03-12,,전라북도 익산시청,2023-06-08,4680000,전라북도 익산시
경희남중경로당,경로당,전라북도 익산시 동서로27길 16 (남중동),전라북도 익산시 남중동 537-1,35.9543980748,126.9604325,영업,,2003-03-31,,전라북도 익산시청,2023-06-08,4680000,전라북도 익산시
남중이화경로당,경로당,전라북도 익산시 익산대로 225 (남중동),전라북도 익산시 남중동 463-16,35.9463417,126.9492866,영업,,2009-12-30,,전라북도 익산시청,2023-06-08,4680000,전라북도 익산시
남중여성경로당,경로당,전라북도 익산시 인북로56길 1 (남중동),전라북도 익산시 남중동 41,35.9505523,126.9586086041,영업,,2008-10-02,,전라북도 익산시청,2023-06-08,4680000,전라북도 익산시
요곡경로당,경로당,전라북도 익산시 고현로 69 (모현동1가),전라북도 익산시 모현동1가 250-1,35.9429027,126.9416283,영업,,1991-12-23,,전라북도 익산시청,2023-06-08,4680000,전라북도 익산시
모현제일고층@경로당,경로당,전라북도 익산시 고현로14길 16,전라북도 익산시 모현동1가 227-3,35.9434432417,126.9445617934,영업,,2005-11-17,,전라북도 익산시청,2023-06-08,4680000,전라북도 익산시
유성아파트,경로당,강원도 강릉시 주문진읍 매맥이윗길 12-4,,37.8804493253,128.8242212562,영업,,2009-03-01,,강원도 강릉시청,2023-05-31,4200000,강원도 강릉시
사동경로당,경로당,전라북도 익산시 군익로11길 29-161 (모현동1가),전라북도 익산시 모현동1가 718-6,35.9445334,126.9370032,영업,,1995-08-29,,전라북도 익산시청,2023-06-08,4680000,전라북도 익산시
모현우림한솔@경로당,경로당,전라북도 익산시 동서로 146-8,전라북도 익산시 모현동1가 19,35.9540035165,126.949836,영업,,1998-09-01,,전라북도 익산시청,2023-06-08,4680000,전라북도 익산시
모현동신@경로당,경로당,전라북도 익산시 동서로 48,전라북도 익산시 모현동2가 198-2,35.9570545663,126.9407267630,영업,,1994-08-30,,전라북도 익산시청,2023-06-08,4680000,전라북도 익산시
모현현대3차@경로당,경로당,전라북도 익산시 배산로 91-9,전라북도 익산시 모현동1가 677-2,35.9449871174,126.9385367,영업,,1997-04-01,,전라북도 익산시청,2023-06-08,4680000,전라북도 익산시
배산제일풍경채에듀파크@경로당,경로당,전라북도 익산시 배산로 93,전라북도 익산시 모현동1가 883,35.9480485,126.9374304,영업,,2013-05-28,,전라북도 익산시청,2023-06-08,4680000,전라북도 익산시
요동경로당,경로당,전라북도 익산시 배산로10길 12 (모현동1가),전라북도 익산시 모현동1가 699-78,35.9441671,126.9397211,영업,,1975-02-05,,전라북도 익산시청,2023-06-08,4680000,전라북도 익산시
모현현대2차@경로당,경로당,전라북도 익산시 배산로14길 9,전라북도 익산시 모현동1가 303-1,35.9455631,126.9413692,영업,,1994-10-10,,전라북도 익산시청,2023-06-08,4680000,전라북도 익산시
"모현현대4,5,6차@경로당",경로당,"전라북도 익산시 선화로8길 12 (모현동1가, 모현5차 현대아파트)",전라북도 익산시 모현동1가 302-20,35.9474416,126.9419628793,영업,,1999-06-01,,전라북도 익산시청,2023-06-08,4680000,전라북도 익산시
모현현대4.5.6차여성경로당,경로당,"전라북도 익산시 배산로16길 33 (모현동1가, 현대아파트)",전라북도 익산시 모현동1가 296-2,35.9469374,126.9431238,영업,,2019-01-10,,전라북도 익산시청,2023-06-08,4680000,전라북도 익산시
명일@경로당,경로당,전라북도 익산시 배산로24길 64,전라북도 익산시 모현동1가 111-1,35.9496579,126.9484040054,영업,,2002-03-15,,전라북도 익산시청,2023-06-08,4680000,전라북도 익산시
배산제일오투그란데경로당,경로당,"전라북도 익산시 선화로 17 ((모현동2가, 배산제일오투그란데))",전라북도 익산시 모현동2가 675,35.9521232,126.9328118,영업,,2015-05-28,,전라북도 익산시청,2023-06-08,4680000,전라북도 익산시
배산부영@경로당,경로당,전라북도 익산시 선화로 41,전라북도 익산시 모현동1가 812,35.9523235,126.936394,영업,,2014-01-22,,전라북도 익산시청,2023-06-08,4680000,전라북도 익산시
모현제일@경로당,경로당,전라북도 익산시 선화로10길 10 (모현동1가),전라북도 익산시 모현동1가 186-35,35.9472232,126.9453714,영업,,1996-04-01,,전라북도 익산시청,2023-06-08,4680000,전라북도 익산시
이편한세상@경로당,경로당,전라북도 익산시 선화로10길 17,전라북도 익산시 모현동1가 954,35.9474652,126.946413,영업,,2014-01-22,,전라북도 익산시청,2023-06-08,4680000,전라북도 익산시
배산제일@경로당,경로당,"전라북도 익산시 선화로13길 62 (모현동1가, 배산제일아파트)",전라북도 익산시 모현동1가 514-1,35.9532536,126.943709,영업,,2004-10-12,,전라북도 익산시청,2023-06-08,4680000,전라북도 익산시
당촌경로당,경로당,전라남도 신안군 지도읍 당촌길 241-12,전라남도 신안군 지도읍 당촌리 813-3,35.04341649,126.1521716,영업,,2010-12-20,65,전라남도 신안군청,2023-06-05,5010000,전라남도 신안군
현내남성경로당,경로당,전라북도 익산시 선화로17길 13,전라북도 익산시 모현동1가 494-56,35.9503955,126.9451564,영업,,1960-05-07,,전라북도 익산시청,2023-06-08,4680000,전라북도 익산시
현내여성경로당,경로당,전라북도 익산시 선화로17길 13,전라북도 익산시 모현동1가 494-56,35.9503955,126.9451564,영업,,1995-05-15,,전라북도 익산시청,2023-06-08,4680000,전라북도 익산시
배산제일2차@경로당,경로당,전라북도 익산시 선화로19길 30,전라북도 익산시 모현동1가 48-4,35.9539685,126.9462889,영업,,1997-06-01,,전라북도 익산시청,2023-06-08,4680000,전라북도 익산시
배산휴먼시아4단지@경로당,경로당,전라북도 익산시 선화로1길 25-14,전라북도 익산시 모현동2가 674,35.9526594,126.9376662,영업,,2011-04-27,,전라북도 익산시청,2023-06-08,4680000,전라북도 익산시
배산휴먼시아5단지@경로당,경로당,전라북도 익산시 선화로1길 57-34,전라북도 익산시 모현동2가 577,35.9560687,126.9358767,영업,,2010-11-23,,전라북도 익산시청,2023-06-08,4680000,전라북도 익산시
모현이화@경로당,경로당,전라북도 익산시 선화로23길 42,전라북도 익산시 모현동1가 94-4,35.951114,126.9476653,영업,,2006-03-09,,전라북도 익산시청,2023-06-08,4680000,전라북도 익산시
고려@경로당,경로당,전라북도 익산시 선화로23길 52,전라북도 익산시 모현동1가 142-2,35.9513907,126.9456877,영업,,2004-09-16,,전라북도 익산시청,2023-06-08,4680000,전라북도 익산시
항가메남성경로당,경로당,전라북도 익산시 선화로2길 41 (모현동1가),전라북도 익산시 모현동1가 762-17,35.9479419,126.9336311,영업,,1992-08-14,,전라북도 익산시청,2023-06-08,4680000,전라북도 익산시
항가메여성경로당,경로당,전라북도 익산시 선화로2길 42 (모현동1가),전라북도 익산시 모현동1가 761-9,35.9480464,126.9334758,영업,,1996-01-26,,전라북도 익산시청,2023-06-08,4680000,전라북도 익산시
중앙하이츠@경로당,경로당,전라북도 익산시 선화로5길 45 (모현동1가),전라북도 익산시 모현동1가 525-2,35.952233,126.942987,영업,,1995-05-10,,전라북도 익산시청,2023-06-08,4680000,전라북도 익산시
배산경로당,경로당,전라북도 익산시 동서로 83 (모현동2가),전라북도 익산시 모현동2가 261-1,35.9558312,126.9438091,영업,,1985-07-28,,전라북도 익산시청,2023-06-08,4680000,전라북도 익산시
모현신기경로당,경로당,전라북도 익산시 신기1길 22-4 (모현동2가),전라북도 익산시 모현동2가 502-19,35.9607588,126.9359749,영업,,1996-09-02,,전라북도 익산시청,2023-06-08,4680000,전라북도 익산시
모현현대1차@경로당,경로당,전라북도 익산시 익산대로17길 16,전라북도 익산시 모현동1가 2-1,35.952579,126.9509409,영업,,1995-05-10,,전라북도 익산시청,2023-06-08,4680000,전라북도 익산시
배산2차부영아파트경로당,경로당,전라북도 익산시 선화로1길 57-33 (모현동2가),전라북도 익산시 모현동2가 673,35.9552398,126.9363074,영업,,2019-08-14,,전라북도 익산시청,2023-06-08,4680000,전라북도 익산시
묵동농은경로당,경로당,전라북도 익산시 군익로15길 27-5 (모현동1가),전라북도 익산시 모현동1가 646-1,35.9468754,126.9346206,영업,,2007-09-21,,전라북도 익산시청,2023-06-08,4680000,전라북도 익산시
모현오투그란데프리미어@경로당,경로당,"전라북도 익산시 군익로13길 26 (모현동1가, 모현 오투그란데 프리미어)",전라북도 익산시 모현동1가 957,35.9459419416,126.9342222487,영업,,2022-05-18,,전라북도 익산시청,2023-06-08,4680000,전라북도 익산시
모현창리경로당,경로당,전라북도 익산시 선화로21길 34-6 (모현동1가),전라북도 익산시 모현동1가 67-83,35.952862,126.946569,영업,,2022-09-27,,전라북도 익산시청,2023-06-08,4680000,전라북도 익산시
송학경로당,경로당,"전라북도 익산시 배산로2길 25-1 (송학동, 송학경로당)",전라북도 익산시 송학동 143,35.9386802,126.9393049829,영업,,1982-05-01,,전라북도 익산시청,2023-06-08,4680000,전라북도 익산시
송만경로당,경로당,전라북도 익산시 배산로2길 25-1 (송학동),전라북도 익산시 송학동 143,35.9386802,126.9393049829,영업,,1997-09-03,,전라북도 익산시청,2023-06-08,4680000,전라북도 익산시
송서경로당,경로당,전라북도 익산시 군익로 426-65 (송학동),전라북도 익산시 송학동 343-67,35.9437889,126.933506,영업,,1995-10-20,,전라북도 익산시청,2023-06-08,4680000,전라북도 익산시
명륜경로당,경로당,전라북도 익산시 학곤로16길 12-4 (송학동),전라북도 익산시 송학동 385-17,35.9401611,126.9313368,영업,,1983-06-01,,전라북도 익산시청,2023-06-08,4680000,전라북도 익산시
학곤경로당,경로당,전라북도 익산시 학곤로 141-25 (송학동),전라북도 익산시 송학동 508-2,35.9383858,126.9284613355,영업,,1992-02-20,,전라북도 익산시청,2023-06-08,4680000,전라북도 익산시
우신아파트,경로당,강원도 강릉시 주문진읍 보리골길 26,,37.8722363204,128.8245119765,영업,,2002-11-01,,강원도 강릉시청,2023-05-31,4200000,강원도 강릉시
신영마을경로당,경로당,전라북도 익산시 군익로6길 17-55 (송학동),전라북도 익산시 송학동 335-60,35.9431176,126.9320011177,영업,,2005-11-11,,전라북도 익산시청,2023-06-08,4680000,전라북도 익산시
송학이화@경로당,경로당,전라북도 익산시 배산로2길 6 (송학동),전라북도 익산시 송학동 224-2,35.938621,126.9365114,영업,,2006-06-27,,전라북도 익산시청,2023-06-08,4680000,전라북도 익산시
훼미리경로당,경로당,전라북도 익산시 배산로2길 10 (송학동),전라북도 익산시 송학동 180-4,35.9387118,126.937686,영업,,2007-09-03,,전라북도 익산시청,2023-06-08,4680000,전라북도 익산시
송학현대@경로당,경로당,전라북도 익산시 배산로 34-1 (송학동),전라북도 익산시 송학동 215,35.9402044,126.9380041,영업,,1995-10-20,,전라북도 익산시청,2023-06-08,4680000,전라북도 익산시
송학리젠시빌@경로당,경로당,전라북도 익산시 배산로 33 (송학동),전라북도 익산시 송학동 245-49,35.940622,126.9368334,영업,,2007-12-24,,전라북도 익산시청,2023-06-08,4680000,전라북도 익산시
영무예다음경로당,경로당,전라북도 익산시 배산로2길 28 (송학동),전라북도 익산시 송학동 138-24,35.9380023340,126.9394864,영업,,2007-11-09,,전라북도 익산시청,2023-06-08,4680000,전라북도 익산시
송학지안리즈경로당,경로당,전라북도 익산시 학곤로 154-7 (송학동),전라북도 익산시 송학동 890,35.9412375,126.9287204,영업,,2010-04-08,,전라북도 익산시청,2023-06-08,4680000,전라북도 익산시
익산더샵아파트경로당,경로당,전라북도 익산시 학곤로20길 77 (송학동),전라북도 익산시 송학동 898,35.9448395,126.92979,영업,,2015-11-23,,전라북도 익산시청,2023-06-08,4680000,전라북도 익산시
물망초경로당,경로당,전라북도 익산시 학곤로6길 17 (송학동),전라북도 익산시 송학동 93-2,35.9381376,126.9429971,영업,,2022-05-06,,전라북도 익산시청,2023-06-08,4680000,전라북도 익산시
내곳경로당,경로당,전라북도 익산시 계문1길 128 (신용동),전라북도 익산시 신용동 217-6,35.9786946,126.9454517,영업,,1983-04-01,,전라북도 익산시청,2023-06-08,4680000,전라북도 익산시
원심동경로당,경로당,전라남도 신안군 지도읍 봉리길 729-57,전라남도 신안군 지도읍 봉리 515-1,35.09865246,126.1912515,영업,,2008-03-23,90,전라남도 신안군청,2023-06-05,5010000,전라남도 신안군
통정경로당,경로당,전라북도 익산시 계문1길 166-2 (신용동),전라북도 익산시 신용동 889,35.9813326,126.943729,영업,,2011-06-13,,전라북도 익산시청,2023-06-08,4680000,전라북도 익산시
현영경로당,경로당,전라북도 익산시 계문길 25 (현영동),전라북도 익산시 현영동 392-1,35.973053,126.9384219,영업,,2005-12-13,,전라북도 익산시청,2023-06-08,4680000,전라북도 익산시
다가포경로당,경로당,전라북도 익산시 다가포길 43-11 (만석동),전라북도 익산시 만석동 172-1,35.9649341,126.9308143,영업,,2008-09-24,,전라북도 익산시청,2023-06-08,4680000,전라북도 익산시
동북@경로당,경로당,전라북도 익산시 동서로 179-14 (신동),전라북도 익산시 신동 620-3,35.9560915,126.9540424,영업,,1995-11-01,,전라북도 익산시청,2023-06-08,4680000,전라북도 익산시
신동제일@경로당,경로당,전라북도 익산시 동서로21길 94-19 (신동),전라북도 익산시 신동 765-23,35.9620169,126.9609786,영업,,1997-08-01,,전라북도 익산시청,2023-06-08,4680000,전라북도 익산시
만석경로당,경로당,전라북도 익산시 만석3길 8 (만석동),전라북도 익산시 만석동 349-2,35.974194,126.9174925,영업,,1984-11-01,,전라북도 익산시청,2023-06-08,4680000,전라북도 익산시
북일경로당,경로당,전라북도 익산시 익산대로23길 35-16 (신동),전라북도 익산시 신동 473-13,35.9645045,126.9516341,영업,,1990-08-17,,전라북도 익산시청,2023-06-08,4680000,전라북도 익산시
석상경로당,경로당,전라북도 익산시 석상길 19 (신용동),전라북도 익산시 신용동 602-2,35.9703679,126.9472313,영업,,1991-04-01,,전라북도 익산시청,2023-06-08,4680000,전라북도 익산시
만석부녀경로당,경로당,전라북도 익산시 선화2로 293 (만석동),전라북도 익산시 만석동 456-1,35.9731022902,126.917782,영업,,1988-04-01,,전라북도 익산시청,2023-06-08,4680000,전라북도 익산시
신곳경로당,경로당,전라북도 익산시 신곳길 9-5 (신용동),전라북도 익산시 신용동 247-2,35.9788143,126.9471015,영업,,1995-09-01,,전라북도 익산시청,2023-06-08,4680000,전라북도 익산시
어은경로당,경로당,전라북도 익산시 어은1길 30-9 (신용동),전라북도 익산시 신용동 302-1,35.979302,126.9496736,영업,,1992-04-01,,전라북도 익산시청,2023-06-08,4680000,전라북도 익산시
신동부녀경로당,경로당,전라북도 익산시 익산대로23길 26 (신동),전라북도 익산시 신동 414-1,35.9636291,126.9531778,영업,,1984-03-03,,전라북도 익산시청,2023-06-08,4680000,전라북도 익산시
금호어울림@경로당,경로당,전라북도 익산시 인북로 334 (신동),전라북도 익산시 신동 861,35.9582753,126.962049,영업,,1985-02-01,,전라북도 익산시청,2023-06-08,4680000,전라북도 익산시
현신경로당,경로당,전라북도 익산시 현영길 173 (현영동),전라북도 익산시 현영동 193-6,35.9757334,126.9352709,영업,,2010-05-18,,전라북도 익산시청,2023-06-08,4680000,전라북도 익산시
서영경로당,경로당,전라북도 익산시 인북로 435 (신동),전라북도 익산시 신동 129-8,35.9667548,126.9642268,영업,,2018-09-04,,전라북도 익산시청,2023-06-08,4680000,전라북도 익산시
수성경로당,경로당,전라북도 익산시 인북로42길 8-10 (영등동),전라북도 익산시 영등동 538-210,35.9481021845,126.9638672,영업,,1992-02-26,,전라북도 익산시청,2023-06-08,4680000,전라북도 익산시
약촌경로당,경로당,전라북도 익산시 동서로41길 5-8 (영등동),전라북도 익산시 영등동 265-2,35.9512449,126.972569,영업,,1979-12-25,,전라북도 익산시청,2023-06-08,4680000,전라북도 익산시
영등동신@경로당,경로당,전라북도 익산시 약촌로 228 (영등동),전라북도 익산시 영등동 682,35.9541183,126.9738849,영업,,1993-05-18,,전라북도 익산시청,2023-06-08,4680000,전라북도 익산시
영등라인1차@경로당,경로당,전라북도 익산시 고봉로16길 11 (영등동),전라북도 익산시 영등동 255,35.9479094,126.9689037,영업,,1995-07-12,,전라북도 익산시청,2023-06-08,4680000,전라북도 익산시
영등라인2차@경로당,경로당,전라북도 익산시 고봉로16길 12 (영등동),전라북도 익산시 영등동 254-50,35.9474839,126.9690408831,영업,,2006-03-02,,전라북도 익산시청,2023-06-08,4680000,전라북도 익산시
영등비사벌@경로당,경로당,전라북도 익산시 고봉로30길 51 (영등동),전라북도 익산시 영등동 771-2,35.956624,126.9750768,영업,,1996-09-22,,전라북도 익산시청,2023-06-08,4680000,전라북도 익산시
영등신일@경로당,경로당,전라북도 익산시 약촌로 202 (영등동),전라북도 익산시 영등동 714-1,35.9515988,126.9756865554,영업,,1993-11-19,,전라북도 익산시청,2023-06-08,4680000,전라북도 익산시
영등우남@경로당,경로당,전라북도 익산시 무왕로16길 29 (영등동),전라북도 익산시 영등동 772,35.9556656,126.977835,영업,,1998-03-21,,전라북도 익산시청,2023-06-08,4680000,전라북도 익산시
영등우미@경로당,경로당,전라북도 익산시 무왕로16길 26 (영등동),전라북도 익산시 영등동 771-3,35.9561197,126.9767796,영업,,1996-02-01,,전라북도 익산시청,2023-06-08,4680000,전라북도 익산시
영등제일1차@경로당,경로당,전라북도 익산시 고봉로30길 13 (영등동),전라북도 익산시 영등동 768-1,35.9566055,126.9726026,영업,,1996-02-24,,전라북도 익산시청,2023-06-08,4680000,전라북도 익산시
영등제일2차1단지@경로당,경로당,전라북도 익산시 고봉로24길 30 (영등동),전라북도 익산시 영등동 767-8,35.9553796,126.9719114,영업,,1998-08-06,,전라북도 익산시청,2023-06-08,4680000,전라북도 익산시
영등제일2차2단지@경로당,경로당,전라북도 익산시 고봉로24길 18 (영등동),전라북도 익산시 영등동 763,35.954637,126.9720624,영업,,1998-08-06,,전라북도 익산시청,2023-06-08,4680000,전라북도 익산시
일우경로당,경로당,전라북도 익산시 선화로47길 82 (영등동),전라북도 익산시 영등동 529-2,35.9507883,126.9635874337,영업,,1992-02-26,,전라북도 익산시청,2023-06-08,4680000,전라북도 익산시
모전1리,경로당,강원도 강릉시 강동면 강동초교길 46,,37.7214346813,128.9614926719,영업,,1980-08-01,,강원도 강릉시청,2023-05-31,4200000,강원도 강릉시
청복경로당,경로당,전라북도 익산시 선화로59길 32-11 (영등동),전라북도 익산시 영등동 233-5,35.9486525,126.9710005,영업,,1993-03-16,,전라북도 익산시청,2023-06-08,4680000,전라북도 익산시
영등제일3차@경로당,경로당,전라북도 익산시 고봉로34길 35 (영등동),전라북도 익산시 영등동 821,35.9603369,126.973803,영업,,1999-07-22,,전라북도 익산시청,2023-06-08,4680000,전라북도 익산시
영등우남샘물타운@경로당,경로당,전라북도 익산시 고봉로34길 5-2 (영등동),전라북도 익산시 영등동 800,35.9603222,126.9725127,영업,,1999-06-30,,전라북도 익산시청,2023-06-08,4680000,전라북도 익산시
곡영대동경로당,경로당,전라북도 익산시 마한로1길 7 (영등동),전라북도 익산시 영등동 422-24,35.9649218,126.9714424,영업,,2007-06-08,,전라북도 익산시청,2023-06-08,4680000,전라북도 익산시
영등제일4차@경로당,경로당,전라북도 익산시 무왕로9길 60 (영등동),전라북도 익산시 영등동 810,35.963365,126.9736567705,영업,,2001-07-18,,전라북도 익산시청,2023-06-08,4680000,전라북도 익산시
영등부영3차@ 경로당,경로당,전라북도 익산시 하나로 483-60 (영등동),전라북도 익산시 영등동 815,35.9635354,126.9786176,영업,,2004-01-12,,전라북도 익산시청,2023-06-08,4680000,전라북도 익산시
영등우남그랜드타운@경로당,경로당,전라북도 익산시 하나로13길 26 (영등동),전라북도 익산시 영등동 822,35.9615132,126.9796292,영업,,2000-07-14,,전라북도 익산시청,2023-06-08,4680000,전라북도 익산시
e편한세상 어양 경로당,경로당,전라북도 익산시 동서로63길 25 (어양동),전라북도 익산시 어양동 736,35.9532478,126.9842456283,영업,,2015-12-22,,전라북도 익산시청,2023-06-08,4680000,전라북도 익산시
어양주공4단지@경로당,경로당,전라북도 익산시 부송1로 17 (어양동),전라북도 익산시 어양동 621,35.9574042,126.9842061,영업,,2005-02-25,,전라북도 익산시청,2023-06-08,4680000,전라북도 익산시
어양주공5단지@경로당,경로당,전라북도 익산시 부송1로 17 (어양동),전라북도 익산시 어양동 621,35.9574042,126.9842061,영업,,2003-01-04,,전라북도 익산시청,2023-06-08,4680000,전라북도 익산시
어양주공6단지경로당,경로당,전라북도 익산시 무왕로19길 11 (어양동),전라북도 익산시 어양동 695,35.9592572,126.9842146,영업,,2001-05-02,,전라북도 익산시청,2023-06-08,4680000,전라북도 익산시
어양주공7단지@경로당,경로당,전라북도 익산시 하나로10길 25 (어양동),전라북도 익산시 어양동 691,35.9621086,126.983642,영업,,2005-09-15,,전라북도 익산시청,2023-06-08,4680000,전라북도 익산시
어양주공8단지경로당,경로당,전라북도 익산시 궁동로 109 (어양동),전라북도 익산시 어양동 689,35.9626747,126.984347,영업,,2003-06-10,,전라북도 익산시청,2023-06-08,4680000,전라북도 익산시
어양부영1차@경로당,경로당,전라북도 익산시 무왕로20길 17 (어양동),전라북도 익산시 어양동 652-1,35.9563223,126.9807833,영업,,1999-04-07,,전라북도 익산시청,2023-06-08,4680000,전라북도 익산시
어양부영2차@경로당,경로당,전라북도 익산시 동서로61길 30 (어양동),전라북도 익산시 어양동 653-1,35.9540116,126.9812894,영업,,2006-10-16,,전라북도 익산시청,2023-06-08,4680000,전라북도 익산시
어양우미@경로당,경로당,전라북도 익산시 무왕로22길 43 (어양동),전라북도 익산시 어양동 84,35.9549065,126.9881394,영업,,1998-08-06,,전라북도 익산시청,2023-06-08,4680000,전라북도 익산시
어양현대@경로당,경로당,"전라북도 익산시 동서로61길 41 (어양동, 어양현대아파트)",전라북도 익산시 어양동 493-12,35.9549127,126.9804511,영업,,1992-02-26,,전라북도 익산시청,2023-06-08,4680000,전라북도 익산시
동남로얄@경로당,경로당,전라북도 익산시 동서로 465 (어양동),전라북도 익산시 어양동 511-16,35.95226,126.9847436,영업,,1992-02-26,,전라북도 익산시청,2023-06-08,4680000,전라북도 익산시
쌍용@경로당,경로당,전라북도 익산시 하나로 357 (어양동),전라북도 익산시 어양동 606-1,35.9519208,126.9820347,영업,,1992-02-26,,전라북도 익산시청,2023-06-08,4680000,전라북도 익산시
자이@경로당,경로당,전라북도 익산시 동서로 509 (어양동),전라북도 익산시 어양동 709,35.9543024181,126.9888552629,영업,,2007-03-20,,전라북도 익산시청,2023-06-08,4680000,전라북도 익산시
어곳경로당,경로당,전라북도 익산시 어곳길 49-5 (어양동),전라북도 익산시 어양동 288,35.9696247,126.9820307,영업,,1992-02-26,,전라북도 익산시청,2023-06-08,4680000,전라북도 익산시
미소드림@경로당,경로당,전라북도 익산시 무왕로19길 65 (어양동),전라북도 익산시 어양동 418,35.9648809,126.9838188,영업,,2013-12-27,,전라북도 익산시청,2023-06-08,4680000,전라북도 익산시
어양엘드수목토경로당,경로당,전라북도 익산시 무왕로19길 18 (어양동),전라북도 익산시 어양동 728,35.960018,126.9854516,영업,,2014-10-13,,전라북도 익산시청,2023-06-08,4680000,전라북도 익산시
익성경로당,경로당,전라북도 익산시 무왕로 1313-10 (팔봉동),전라북도 익산시 팔봉동 산178-1,35.9619439,127.0022836,영업,,1971-04-25,,전라북도 익산시청,2023-06-08,4680000,전라북도 익산시
원팔봉부녀경로당,경로당,전라북도 익산시 무왕로27길 6-1 (팔봉동),전라북도 익산시 팔봉동 726-7,35.9622359,127.0034188,영업,,1995-02-18,,전라북도 익산시청,2023-06-08,4680000,전라북도 익산시
팔봉경로당,경로당,전라북도 익산시 무왕로30길 19-1 (팔봉동),전라북도 익산시 팔봉동 273-1,35.964582,127.0133697,영업,,1995-10-20,,전라북도 익산시청,2023-06-08,4680000,전라북도 익산시
팔봉부녀경로당,경로당,전라북도 익산시 무왕로30길 19-1 (팔봉동),전라북도 익산시 팔봉동 273-1,35.9645784,127.0133697,영업,,1992-07-01,,전라북도 익산시청,2023-06-08,4680000,전라북도 익산시
장목경로당,경로당,전라북도 익산시 장목길 17-2 (팔봉동),전라북도 익산시 팔봉동 121-12,35.9623275,127.0225172,영업,,2006-01-11,,전라북도 익산시청,2023-06-08,4680000,전라북도 익산시
하남경로당,경로당,전라북도 익산시 하남길 78 (덕기동),전라북도 익산시 덕기동 644,35.9673316,127.0357247,영업,,2007-01-11,,전라북도 익산시청,2023-06-08,4680000,전라북도 익산시
중왕경로당,경로당,전라북도 익산시 은기길 346 (은기동),전라북도 익산시 은기동 107-1,35.9868628,127.0227105,영업,,2009-12-30,,전라북도 익산시청,2023-06-08,4680000,전라북도 익산시
팔봉석교경로당,경로당,전라북도 익산시 석교1길 8 (은기동),전라북도 익산시 은기동 158-3,35.9901297,127.0177033703,영업,,2008-12-29,,전라북도 익산시청,2023-06-08,4680000,전라북도 익산시
은기경로당,경로당,전라북도 익산시 은기길 178-25 (은기동),전라북도 익산시 은기동 464-5,35.9850549,127.0090618,영업,,1987-11-01,,전라북도 익산시청,2023-06-08,4680000,전라북도 익산시
배못경로당,경로당,전라북도 익산시 석암로4길 8-1 (용제동),전라북도 익산시 용제동 426,35.9453286,127.0016013144,영업,,1998-04-13,,전라북도 익산시청,2023-06-08,4680000,전라북도 익산시
추산경로당,경로당,전라북도 익산시 서동로44길 18-3 (석암동),전라북도 익산시 석암동 286-6,35.9343547,127.0097342,영업,,1993-12-07,,전라북도 익산시청,2023-06-08,4680000,전라북도 익산시
석암경로당,경로당,전라북도 익산시 서동로52길 41 (석암동),전라북도 익산시 석암동 314-5,35.9359191,127.0118044158,영업,,1987-03-01,,전라북도 익산시청,2023-06-08,4680000,전라북도 익산시
초곡경로당,경로당,전라북도 익산시 서동로40길 17 (신흥동),전라북도 익산시 신흥동 659-1,35.9393574,126.9817849,영업,,1995-11-10,,전라북도 익산시청,2023-06-08,4680000,전라북도 익산시
동부경로당,경로당,전라북도 익산시 하왕길 69 (석왕동),전라북도 익산시 석왕동 286-1,35.9786193,127.0167694,영업,,1987-09-01,,전라북도 익산시청,2023-06-08,4680000,전라북도 익산시
용못경로당,경로당,전라북도 익산시 선화로30길 73-2 (용제동),전라북도 익산시 용제동 299-1,35.9465795,126.9959967,영업,,1989-08-15,,전라북도 익산시청,2023-06-08,4680000,전라북도 익산시
기안파인골드빌@경로당,경로당,전라북도 익산시 무왕로32길 85 (팔봉동),전라북도 익산시 팔봉동 304,35.963749,127.0155069,영업,,2003-02-26,,전라북도 익산시청,2023-06-08,4680000,전라북도 익산시
기안2차@경로당,경로당,전라북도 익산시 무왕로32길 80 (팔봉동),전라북도 익산시 팔봉동 313,35.9654722,127.0155826,영업,,2007-11-02,,전라북도 익산시청,2023-06-08,4680000,전라북도 익산시
팔봉신왕경로당,경로당,전라북도 익산시 신왕길 98 (석왕동),전라북도 익산시 석왕동 158-186,35.9786248,127.026101,영업,,2011-09-15,,전라북도 익산시청,2023-06-08,4680000,전라북도 익산시
팔봉관동마을경로당,경로당,전라북도 익산시 서동로46길 103 (석암동),전라북도 익산시 석암동 370-2,35.9372857,127.0082097,영업,,2013-03-12,,전라북도 익산시청,2023-06-08,4680000,전라북도 익산시
팔봉신촌경로당,경로당,전라북도 익산시 서동로48길 36 (용제동),전라북도 익산시 용제동 80-1,35.9424591,127.0018309,영업,,2014-12-08,,전라북도 익산시청,2023-06-08,4680000,전라북도 익산시
상왕경로당,경로당,전라북도 익산시 상왕길 9 (석왕동),전라북도 익산시 석왕동 45-1,35.9717901,127.0245909,영업,,2016-01-05,,전라북도 익산시청,2023-06-08,4680000,전라북도 익산시
팔봉석치경로당,경로당,전라북도 익산시 석치길 40-2 (석왕동),전라북도 익산시 석왕동 345-1,35.9771781,127.0093714,영업,,2017-11-16,,전라북도 익산시청,2023-06-08,4680000,전라북도 익산시
수신경로당,경로당,전라북도 익산시 남산길 97 (덕기동),전라북도 익산시 덕기동 41-72,35.9728225,127.0449916,영업,,2021-07-23,,전라북도 익산시청,2023-06-08,4680000,전라북도 익산시
부송리젠시빌@경로당,경로당,전라북도 익산시 무왕로21길 64 (부송동),전라북도 익산시 부송동 669,35.9645316,126.9868343,영업,,2005-12-26,,전라북도 익산시청,2023-06-08,4680000,전라북도 익산시
부송주공9단지@경로당,경로당,전라북도 익산시 궁동로 129 (부송동),전라북도 익산시 부송동 1198,35.9628154,126.9851895,영업,,2003-06-11,,전라북도 익산시청,2023-06-08,4680000,전라북도 익산시
제일까치샘@경로당,경로당,전라북도 익산시 무왕로21길 18 (부송동),전라북도 익산시 부송동 1084-1,35.9607535,126.9865245,영업,,2004-06-16,,전라북도 익산시청,2023-06-08,4680000,전라북도 익산시
부송주공1단지@경로당,경로당,전라북도 익산시 무왕로22길 12 (부송동),전라북도 익산시 부송동 1069,35.957408,126.9854565,영업,,1995-03-20,,전라북도 익산시청,2023-06-08,4680000,전라북도 익산시
부송주공3단지@경로당,경로당,전라북도 익산시 무왕로22길 28 (부송동),전라북도 익산시 부송동 1071,35.9561067,126.9865431,영업,,1995-03-22,,전라북도 익산시청,2023-06-08,4680000,전라북도 익산시
부송아름드리@경로당,경로당,전라북도 익산시 무왕로22길 27 (부송동),전라북도 익산시 부송동 1075,35.9562944,126.9881392,영업,,1994-09-13,,전라북도 익산시청,2023-06-08,4680000,전라북도 익산시
푸른솔@경로당,경로당,전라북도 익산시 부송로 52 (부송동),전라북도 익산시 부송동 1040,35.9561937,126.9915667,영업,,1993-04-10,,전라북도 익산시청,2023-06-08,4680000,전라북도 익산시
부송동신@경로당,경로당,전라북도 익산시 부송1로 83 (부송동),전라북도 익산시 부송동 1038,35.9581765,126.991797,영업,,1993-10-29,,전라북도 익산시청,2023-06-08,4680000,전라북도 익산시
부송삼성@경로당,경로당,전라북도 익산시 부송1로 95 (부송동),전라북도 익산시 부송동 1038-1,35.9582234,126.9925286,영업,,1994-12-15,,전라북도 익산시청,2023-06-08,4680000,전라북도 익산시
부송우미@경로당,경로당,전라북도 익산시 선화로69길 45 (부송동),전라북도 익산시 부송동 1040-1,35.9561686,126.9929412,영업,,2002-03-28,,전라북도 익산시청,2023-06-08,4680000,전라북도 익산시
신작천경로당,경로당,전라북도 익산시 부송로6길 52 (부송동),전라북도 익산시 부송동 1058-4,35.9547448,126.996147,영업,,2006-11-22,,전라북도 익산시청,2023-06-08,4680000,전라북도 익산시
송백마을@경로당,경로당,전라북도 익산시 부송1로 123 (부송동),전라북도 익산시 부송동 1205,35.9594924,126.9940672,영업,,2006-06-01,,전라북도 익산시청,2023-06-08,4680000,전라북도 익산시
부송오투그란데@경로당,경로당,전라북도 익산시 선화로73길 38 (부송동),전라북도 익산시 부송동 216-6,35.9589281688,126.9976947229,영업,,2010-03-11,,전라북도 익산시청,2023-06-08,4680000,전라북도 익산시
부송동아@경로당,경로당,전라북도 익산시 무왕로26길 32 (부송동),전라북도 익산시 부송동 231-4,35.9583137,126.9976766,영업,,1997-10-25,,전라북도 익산시청,2023-06-08,4680000,전라북도 익산시
부송동아2차@경로당,경로당,전라북도 익산시 선화로 683-4 (부송동),전라북도 익산시 부송동 231-46,35.9578054,126.9999867,영업,,2004-12-14,,전라북도 익산시청,2023-06-08,4680000,전라북도 익산시
우남콤비타운@경로당,경로당,전라북도 익산시 무왕로26길 11-5 (부송동),전라북도 익산시 부송동 216-2,35.9593592,126.9998803,영업,,1995-11-16,,전라북도 익산시청,2023-06-08,4680000,전라북도 익산시
부송제일5차@경로당,경로당,전라북도 익산시 무왕로25길 8 (부송동),전라북도 익산시 부송동 1120,35.9608066468,126.9934374,영업,,2002-12-18,,전라북도 익산시청,2023-06-08,4680000,전라북도 익산시
부영5차@경로당,경로당,전라북도 익산시 하나로10길 97 (부송동),전라북도 익산시 부송동 1108,35.9625025,126.9924529,영업,,2002-09-06,,전라북도 익산시청,2023-06-08,4680000,전라북도 익산시
부송부평경로당,경로당,전라북도 익산시 부평1길 4 (부송동),전라북도 익산시 부송동 526-7,35.9698022,126.9886162,영업,,2014-10-17,,전라북도 익산시청,2023-06-08,4680000,전라북도 익산시
부송송정경로당,경로당,전라북도 익산시 송정길 13-4 (부송동),전라북도 익산시 부송동 609-6,35.9687168,126.9862019960,영업,,1982-03-25,,전라북도 익산시청,2023-06-08,4680000,전라북도 익산시
망산경로당,경로당,"전라북도 익산시 망산길 11-6 (부송동, 망산경로당)",전라북도 익산시 부송동 84,35.9774452,126.9964297,영업,,1995-03-22,,전라북도 익산시청,2023-06-08,4680000,전라북도 익산시
상정마을경로당,경로당,전라북도 익산시 정족1길 28 (정족동),전라북도 익산시 정족동 323-1,35.9863455,126.9906009,영업,,2016-01-29,,전라북도 익산시청,2023-06-08,4680000,전라북도 익산시
삼성경로당,경로당,전라북도 익산시 임내길 67 (임상동),전라북도 익산시 임상동 183-4,35.9855912,126.9827722,영업,,1962-01-01,,전라북도 익산시청,2023-06-08,4680000,전라북도 익산시
월성경로당,경로당,전라북도 익산시 하나로15길 42-14 (월성동),전라북도 익산시 월성동 272-21,35.9904028,126.9768006,영업,,1982-03-24,,전라북도 익산시청,2023-06-08,4680000,전라북도 익산시
내화경로당,경로당,전라북도 익산시 내신길 49-25 (월성동),전라북도 익산시 월성동 413-1,35.9982265,126.9658895,영업,,2016-09-05,,전라북도 익산시청,2023-06-08,4680000,전라북도 익산시
외화경로당,경로당,전라북도 익산시 몽환신화길 142 (월성동),전라북도 익산시 월성동 629-4,35.9942201,126.9615794,영업,,2004-01-07,,전라북도 익산시청,2023-06-08,4680000,전라북도 익산시
몽환경로당,경로당,전라북도 익산시 몽환길 48 (임상동),전라북도 익산시 임상동 537-1,35.9858012653,126.9715458,영업,,2016-07-20,,전라북도 익산시청,2023-06-08,4680000,전라북도 익산시
오상경로당,경로당,전라북도 익산시 오동길 16 (임상동),전라북도 익산시 임상동 428-1,35.9806549,126.9764752,영업,,2008-09-24,,전라북도 익산시청,2023-06-08,4680000,전라북도 익산시
포레나익산부송@경로당,경로당,"전라북도 익산시 무왕로 1195 (부송동, 포레나 익산 부송)",전라북도 익산시 부송동 1102,35.9599663732,126.9890388,영업,,2022-06-09,,전라북도 익산시청,2023-06-08,4680000,전라북도 익산시
원달경로당,경로당,전라남도 신안군 지도읍 원달길 26-2,전라남도 신안군 지도읍 탄동리 968,35.03582855,126.183197,영업,,2001-05-29,65,전라남도 신안군청,2023-06-05,5010000,전라남도 신안군
황금경로당,경로당,전라남도 신안군 지도읍 봉리길 899-27,전라남도 신안군 지도읍 봉리 878-1,35.09625799,126.1791182,영업,,1998-01-06,65,전라남도 신안군청,2023-06-05,5010000,전라남도 신안군
외양경로당,경로당,전라남도 신안군 지도읍 외양길 30-2,전라남도 신안군 지도읍 내양리 206-1,35.09029559,126.2336013,영업,,2018-07-30,95,전라남도 신안군청,2023-06-05,5010000,전라남도 신안군
봉동경로당,경로당,전라남도 신안군 지도읍 봉리길 629-1,전라남도 신안군 지도읍 봉리 380-19,35.09279862,126.1971368,영업,,2010-06-07,117,전라남도 신안군청,2023-06-05,5010000,전라남도 신안군
내양경로당,경로당,전라남도 신안군 지도읍 원내양길 252,전라남도 신안군 지도읍 내양리 51-1,35.09692866,126.2406929,영업,,2002-04-29,76,전라남도 신안군청,2023-06-05,5010000,전라남도 신안군
송도경로당,경로당,전라남도 신안군 지도읍 송도1길 10,전라남도 신안군 지도읍 읍내리 744,35.05185305,126.2032315,영업,,2009-11-27,111,전라남도 신안군청,2023-06-05,5010000,전라남도 신안군
오룡경로당,경로당,전라남도 신안군 지도읍 동천길 983,전라남도 신안군 지도읍 자동리 1219-1,35.05047736,126.2448777,영업,,2003-02-13,73,전라남도 신안군청,2023-06-05,5010000,전라남도 신안군
내도경로당,경로당,전라남도 신안군 지도읍 내도길 170,전라남도 신안군 지도읍 탄동리 530-1,35.0226793,126.1900652,영업,,2003-01-10,73,전라남도 신안군청,2023-06-05,5010000,전라남도 신안군
효지경로당,경로당,전라남도 신안군 지도읍 효지길 31-5,전라남도 신안군 지도읍 자동리 236,35.05030157,126.2525724,영업,,2018-02-12,75,전라남도 신안군청,2023-06-05,5010000,전라남도 신안군
원광정경로당,경로당,전라남도 신안군 지도읍 원광정길 38,전라남도 신안군 지도읍 광정리 1297-4,35.06211715,126.213206,영업,,2004-01-12,83,전라남도 신안군청,2023-06-05,5010000,전라남도 신안군
적거경로당,경로당,전라남도 신안군 지도읍 적거길 136,전라남도 신안군 지도읍 광정리 466-2,35.06472252,126.2275419,영업,,2004-10-27,167,전라남도 신안군청,2023-06-05,5010000,전라남도 신안군
장동경로당,경로당,전라남도 신안군 지도읍 장안길 36,전라남도 신안군 지도읍 광정리 847,35.07793151,126.2115004,영업,,2004-08-31,92,전라남도 신안군청,2023-06-05,5010000,전라남도 신안군
묘동경로당,경로당,전라남도 신안군 지도읍 묘동길 42-2,전라남도 신안군 지도읍 당촌리 492-2,35.04438444,126.158606,영업,,2004-10-30,64,전라남도 신안군청,2023-06-05,5010000,전라남도 신안군
서동경로당,경로당,전라남도 신안군 지도읍 서동길 10,전라남도 신안군 지도읍 봉리 696-1,35.10229057,126.1859251,영업,,2004-11-25,83,전라남도 신안군청,2023-06-05,5010000,전라남도 신안군
자동1(원자동)경로당,경로당,전라남도 신안군 지도읍 원자동길 18-11,전라남도 신안군 지도읍 자동리 738-4,35.05863814,126.2506869,영업,,2005-04-06,86,전라남도 신안군청,2023-06-05,5010000,전라남도 신안군
어의1경로당,경로당,전라남도 신안군 지도읍 어의길 107,전라남도 신안군 지도읍 어의리 409,35.14054688,126.19105,영업,,2006-01-05,101,전라남도 신안군청,2023-06-05,5010000,전라남도 신안군
누동경로당,경로당,전라남도 신안군 지도읍 누동길 14,전라남도 신안군 지도읍 태천리 61-3,35.03556958,126.2673586,영업,,2006-01-16,55,전라남도 신안군청,2023-06-05,5010000,전라남도 신안군
금출경로당,경로당,전라남도 신안군 지도읍 금출길 3-1,전라남도 신안군 지도읍 감정리 1304-3,35.08715713,126.1735519,영업,,2006-01-13,107,전라남도 신안군청,2023-06-05,5010000,전라남도 신안군
연화경로당,경로당,전라남도 신안군 지도읍 연화동길 27-16,전라남도 신안군 지도읍 태천리 556-6,35.02966171,126.2591732,영업,,2006-01-18,85,전라남도 신안군청,2023-06-05,5010000,전라남도 신안군
매계경로당,경로당,전라남도 신안군 지도읍 매계길 118,전라남도 신안군 지도읍 선도리 1705-9,34.97949487,126.2580901,영업,,2006-02-23,85,전라남도 신안군청,2023-06-05,5010000,전라남도 신안군
자서경로당,경로당,전라남도 신안군 지도읍 자서길 44,전라남도 신안군 지도읍 자동리 1039,35.05627866,126.24558,영업,,2006-03-15,92,전라남도 신안군청,2023-06-05,5010000,전라남도 신안군
가정경로당,경로당,전라남도 신안군 지도읍 가정길 103-9,전라남도 신안군 지도읍 내양리 546,35.09897096,126.2231007,영업,,2006-11-17,95,전라남도 신안군청,2023-06-05,5010000,전라남도 신안군
조비경로당,경로당,전라남도 신안군 지도읍 조비길 17,전라남도 신안군 지도읍 감정리 1138-2,35.07675038,126.1740178,영업,,2006-12-15,93,전라남도 신안군청,2023-06-05,5010000,전라남도 신안군
참도경로당,경로당,전라남도 신안군 지도읍 참도길 296-5,전라남도 신안군 지도읍 봉리 2055-6,35.10665447,126.1995943,영업,,2006-12-15,90,전라남도 신안군청,2023-06-05,5010000,전라남도 신안군
하탑경로당,경로당,전라남도 신안군 지도읍 지도증도로 348,전라남도 신안군 지도읍 탄동리 산 153-166,35.03555283,126.190879,영업,,2006-12-15,93,전라남도 신안군청,2023-06-05,5010000,전라남도 신안군
백련경로당,경로당,전라남도 신안군 지도읍 백련길 67,전라남도 신안군 지도읍 감정리 743,35.08362556,126.1875915,영업,,2006-12-15,96,전라남도 신안군청,2023-06-05,5010000,전라남도 신안군
월산경로당,경로당,전라남도 신안군 지도읍 봉리길 88-29,전라남도 신안군 지도읍 광정리 1041-1,35.06859007,126.2129973,영업,,2006-12-14,89,전라남도 신안군청,2023-06-05,5010000,전라남도 신안군
감정1경로당,경로당,전라남도 신안군 지도읍 감정길 15,전라남도 신안군 지도읍 감정리 99-2,35.07253664,126.1992889,영업,,1943-04-10,66,전라남도 신안군청,2023-06-05,5010000,전라남도 신안군
장덕2리,경로당,강원도 강릉시 주문진읍 신리천로 527-3,,37.8800207800,128.7770304211,영업,,2003-01-01,,강원도 강릉시청,2023-05-31,4200000,강원도 강릉시
대실경로당,경로당,전라남도 신안군 지도읍 봉리길 551-5,전라남도 신안군 지도읍 봉리 111-1,35.0901371,126.2037596,영업,,2008-01-24,100,전라남도 신안군청,2023-06-05,5010000,전라남도 신안군
읍서경로당,경로당,전라남도 신안군 지도읍 서촌길 67-6,전라남도 신안군 지도읍 읍내리 362-1,35.06152992,126.2059153,영업,,2008-01-14,84,전라남도 신안군청,2023-06-05,5010000,전라남도 신안군
송항경로당,경로당,전라남도 신안군 지도읍 원내양길 25-16,전라남도 신안군 지도읍 내양리 719,35.09187206,126.2207074,영업,,2008-01-24,82,전라남도 신안군청,2023-06-05,5010000,전라남도 신안군
태이경로당,경로당,전라남도 신안군 지도읍 태이길 181-35,전라남도 신안군 지도읍 태천리 산 380-2,35.02423421,126.2344845,영업,,2008-02-20,97,전라남도 신안군청,2023-06-05,5010000,전라남도 신안군
북촌경로당,경로당,전라남도 신안군 지도읍 선도길 284,전라남도 신안군 지도읍 선도리 1135,34.99737761,126.2620757,영업,,2009-01-11,98,전라남도 신안군청,2023-06-05,5010000,전라남도 신안군
용교경로당,경로당,전라남도 신안군 지도읍 용교길 96,전라남도 신안군 지도읍 광정리 705,35.06875507,126.2204027,영업,,2009-06-15,84,전라남도 신안군청,2023-06-05,5010000,전라남도 신안군
선도3경로당,경로당,전라남도 신안군 지도읍 선도길 152-1,전라남도 신안군 지도읍 선도리 846,34.98734642,126.2641166,영업,,2009-01-11,86,전라남도 신안군청,2023-06-05,5010000,전라남도 신안군
주동경로당,경로당,전라남도 신안군 지도읍 선도길 69,전라남도 신안군 지도읍 선도리 514-10,34.98139106,126.2672493,영업,,2010-01-28,86,전라남도 신안군청,2023-06-05,5010000,전라남도 신안군
원동경로당,경로당,전라남도 신안군 지도읍 봉리길 763-26,전라남도 신안군 지도읍 봉리 614,35.10021781,126.1876384,영업,,2019-04-08,65,전라남도 신안군청,2023-06-05,5010000,전라남도 신안군
소감정경로당,경로당,전라남도 신안군 지도읍 해제지도로 1501-8,전라남도 신안군 지도읍 감정리 171-5,35.07361384,126.1954765,영업,,2014-06-16,52,전라남도 신안군청,2023-06-05,5010000,전라남도 신안군
포작경로당,경로당,전라남도 신안군 지도읍 대포작길 69,전라남도 신안군 지도읍 어의리 633,35.11629025,126.2037469,영업,,2014-08-20,50,전라남도 신안군청,2023-06-05,5010000,전라남도 신안군
진변경로당,경로당,전라남도 신안군 지도읍 동천길 53,전라남도 신안군 지도읍 자동리 418-14,35.05292788,126.2600787,영업,,1997-01-08,66,전라남도 신안군청,2023-06-05,5010000,전라남도 신안군
노송경로당,경로당,전라남도 신안군 증도면 증도중앙길 10,전라남도 신안군 증도면 증동리 1305-1,35.00237745,126.141804,영업,,1982-07-29,99,전라남도 신안군청,2023-06-05,5010000,전라남도 신안군
병풍대촌경로당,경로당,전라남도 신안군 증도면 병풍1길 64-15,전라남도 신안군 증도면 병풍리 530-2,34.9611377,126.2126445,영업,,1985-07-02,84,전라남도 신안군청,2023-06-05,5010000,전라남도 신안군
병풍경로당,경로당,전라남도 신안군 증도면 병풍1길 64-5,전라남도 신안군 증도면 병풍리 634,34.96139203,126.2123195,영업,,2014-02-24,90,전라남도 신안군청,2023-06-05,5010000,전라남도 신안군
증북경로당,경로당,전라남도 신안군 증도면 증도중앙길 6,전라남도 신안군 증도면 증동리 1310,35.00259488,126.1420621,영업,,1998-03-30,72,전라남도 신안군청,2023-06-05,5010000,전라남도 신안군
우전경로당,경로당,전라남도 신안군 증도면 지도증도로 1797-1,전라남도 신안군 증도면 우전리 352-2,34.96103749,126.1383882,영업,,1999-02-12,78,전라남도 신안군청,2023-06-05,5010000,전라남도 신안군
